~VERSION INFORMATION
 VERS.                          2.0   : CWLS LOG ASCII STANDARD - VERSION 2.0
 WRAP.                          NO    : ONE LINE PER DEPTH STEP
#
~Well Information Section
#MNEM     .UNIT     DATA                DESCRIPTION
#-----    -----     --------            --------------
 STRT     .M        1146.0000           : START DEPTH
 STOP     .M        2901.0000           : END DEPTH
 STEP     .M        0.2500              : INCREMENT DEPTH
 NULL     .         -999.2500           : NULL VALUE
 COMP     .                             :
 WELL     .         DD-1X               : WELL NAME
 EKB      .M        0.0000              : KELLY BUSHING ELEVATION
 EGL      .M        0.0000              : GROUND LEVEL ELEVATION
 FLD      .                              :
 LOC      . X = 451281.4100 Y = 1118162.4900: WELL LOCATION
 PROV     .                              :
 SRVC     .                              :
 PROV     .                              :
 DATE     .                              :
 UWI      .         Unknown              : UNIQUE WELL ID
 API      .                              :
#
~Curve Information Section
#MNEM     .UNIT               Curve #DESCRIPTION
#-----    -----               ----   --------------
 DEPTH    .M                  : 1     Name = Domain Curve - Type = DEPTH
 RHOB     .g/cm3              : 2     Name = Density - Type = Density
 UNKNOWN  .(m/s)*(g/cc)       : 3     Name = P-Impedance_trans - Type = P-Impedance
 DT       .m/s                : 4     Name = P-wave - Type = P-wave
 UNKNOWN  .v/v                : 5     Name = PHIE - Type = Porosity
 UNKNOWN  .(m/s)*(g/cc)       : 6     Name = S-Impedance_trans - Type = S-Impedance
 SDT      .m/s                : 7     Name = S-wave - Type = S-wave
 UNKNOWN  .0.Sw               : 8     Name = SW - Type = Water Saturation
 UNKNOWN  .fraction           : 9     Name = VWCL - Type = Volumetric
 UNKNOWN  .unitless           : 10    Name = VpVs_Ratio - Type = VpVs_Ratio
 UNKNOWN  .md                 : 11    Name = lithology - Type = lithology
~A (ASCII LOG DATA)
# ...
 1228.2500          2.1109       4773.5811       2261.3604       -999.2500       1870.9070        886.2961          0.8091          0.2789          2.5517          4.0000
 1228.5000          2.1187       4768.6685       2250.7312       -999.2500       1846.1696        871.3629          0.8214          0.3031          2.5830          4.0000
 1228.7500          2.1371       4831.8525       2260.8972       -999.2500       1860.0031        870.3313          0.8430          0.3032          2.5978          4.0000
 1229.0000          2.1561       4885.4316       2265.8181       -999.2500       1863.2944        864.1898          0.9398          0.3873          2.6219          1.0000
 1229.2500          2.1781       4947.3047       2271.3550       -999.2500       1867.1635        857.2435          1.0000          0.5355          2.6496          1.0000
 1229.5000          2.2036       5033.2993       2284.1497       -999.2500       1886.1774        855.9681          1.0000          0.8457          2.6685          1.0000
 1229.7500          2.2269       5105.5273       2292.6682       -999.2500       1898.6063        852.5906          1.0000          0.9932          2.6891          1.0000
 1230.0000          2.2394       5117.4248       2285.1819       -999.2500       1876.9343        838.1508          1.0000          1.0000          2.7267          1.0000
 1230.2500          2.2405       5042.6265       2250.7004       -999.2500       1798.7338        802.8354          1.0000          1.0000          2.8038          1.0000
 1230.5000          2.2378       4970.6206       2221.2371       -999.2500       1735.0051        775.3245          1.0000          1.0000          2.8652          1.0000
 1230.7500          2.2377       4947.2705       2210.8811       -999.2500       1711.9170        765.0370          1.0000          1.0000          2.8899          1.0000
 1231.0000          2.2375       4951.7271       2213.1060       -999.2500       1717.2384        767.4962          1.0000          1.0000          2.8836          1.0000
 1231.2500          2.2356       4960.6968       2218.9429       -999.2500       1730.3864        774.0106          1.0000          1.0000          2.8668          1.0000
 1231.5000          2.2273       4933.5562       2215.0110       -999.2500       1723.8953        773.9744          1.0000          1.0000          2.8619          1.0000
 1231.7500          2.2196       4902.5449       2208.7410       -999.2500       1711.3014        770.9918          1.0000          1.0000          2.8648          1.0000
 1232.0000          2.2164       4901.8169       2211.6548       -999.2500       1718.4344        775.3421          1.0000          1.0000          2.8525          1.0000
 1232.2500          2.2140       4913.2192       2219.1743       -999.2500       1735.9833        784.0995          1.0000          1.0000          2.8302          1.0000
 1232.5000          2.2106       4916.0977       2223.8274       -999.2500       1747.7612        790.6123          1.0000          1.0000          2.8128          1.0000
 1232.7500          2.2081       4941.2881       2237.8235       -999.2500       1779.8719        806.0735          1.0000          1.0000          2.7763          1.0000
 1233.0000          2.2116       5040.2090       2278.9519       -999.2500       1867.0002        844.1422          1.0000          1.0000          2.7010          1.0000
 1233.2500          2.2281       5281.9478       2370.4500       -999.2500       2055.5181        922.4211          1.0000          1.0000          2.5717          1.0000
 1233.5000          2.2507       5635.4814       2503.7773       -999.2500       2329.1458       1034.7468          1.0000          1.0000          2.4216          1.0000
 1233.7500          2.2677       5967.6206       2631.4585       -999.2500       2591.0491       1142.4939          1.0000          0.9031          2.3045          1.0000
 1234.0000          2.2818       6296.0830       2759.1682       -999.2500       2854.5530       1250.9312          0.9386          0.5407          2.2066          4.0000
 1234.2500          2.2916       6553.3125       2859.6931       -999.2500       3063.8801       1336.9834          0.7261          0.2500          2.1393          4.0000
 1234.5000          2.2959       6717.4521       2925.8979       -999.2500       3203.5557       1395.3604          0.6006          0.2124          2.0970          4.0000
 1234.7500          2.2906       6710.7378       2929.6565       -999.2500       3211.8821       1402.1862          0.5491          0.2890          2.0894          4.0000
 1235.0000          2.2723       6532.9902       2875.0808       -999.2500       3099.7300       1364.1406          0.5076          0.3518          2.1077          1.0000
 1235.2500          2.2614       6419.0503       2838.5264       -999.2500       3027.8936       1338.9430          0.5340          0.3788          2.1200          4.0000
 1235.5000          2.2640       6468.1113       2856.9744       -999.2500       3061.1973       1352.1328          0.5340          0.3711          2.1130          4.0000
 1235.7500          2.2741       6607.6997       2905.5603       -999.2500       3150.3101       1385.2622          0.6127          0.4270          2.0975          1.0000
 1236.0000          2.2806       6702.7656       2939.0435       -999.2500       3213.5610       1409.0870          0.6264          0.4102          2.0858          4.0000
 1236.2500          2.2815       6729.0713       2949.3901       -999.2500       3233.2869       1417.1680          0.6631          0.2969          2.0812          4.0000
 1236.5000          2.2770       6684.3096       2935.5276       -999.2500       3202.8513       1406.5853          0.8114          0.2467          2.0870          4.0000
 1236.7500          2.2776       6692.8711       2938.5557       -999.2500       3209.6360       1409.2134          0.8203          0.2397          2.0853          4.0000
 1237.0000          2.2673       6546.5391       2887.2905       -999.2500       3107.6978       1370.6023          0.6950          0.3051          2.1068          4.0000
 1237.2500          2.2450       6244.7979       2781.5056       -999.2500       2905.6375       1294.1564          0.8285          0.4500          2.1497          1.0000
 1237.5000          2.2217       5957.6094       2681.4771       -999.2500       2718.3755       1223.5026          0.8598          0.4361          2.1918          4.0000
 1237.7500          2.2027       5770.0220       2619.5281       -999.2500       2602.8772       1181.6752          0.9478          0.3727          2.2168          4.0000
 1238.0000          2.1970       5757.3242       2620.5237       -999.2500       2605.8950       1186.1079          0.9070          0.3096          2.2094          4.0000
 1238.2500          2.1955       5818.1426       2650.0691       -999.2500       2666.7615       1214.6691          0.8588          0.2701          2.1818          4.0000
 1238.5000          2.1885       5810.3247       2654.9055       -999.2500       2675.1960       1222.3759          0.8313          0.2450          2.1719          4.0000
 1238.7500          2.1795       5769.9663       2647.3516       -999.2500       2660.1187       1220.5045          0.8421          0.1870          2.1691          4.0000
 1239.0000          2.1714       5713.9038       2631.4175       -999.2500       2627.7773       1210.1638          0.8380          0.1260          2.1745          4.0000
 1239.2500          2.1622       5617.5732       2598.0977       -999.2500       2561.2288       1184.5505          0.8476          0.1130          2.1934          4.0000
 1239.5000          2.1555       5528.7017       2564.8630       -999.2500       2495.0876       1157.5105          0.8644          0.1370          2.2159          4.0000
 1239.7500          2.1518       5469.9810       2542.0095       -999.2500       2449.8684       1138.5024          0.8696          0.1902          2.2328          4.0000
