~VERSION INFORMATION
 VERS.                          2.0   : CWLS LOG ASCII STANDARD - VERSION 2.0
 WRAP.                          NO    : ONE LINE PER DEPTH STEP
#
~Well Information Section
#MNEM     .UNIT     DATA                DESCRIPTION
#-----    -----     --------            --------------
 STRT     .M        1146.0000           : START DEPTH
 STOP     .M        2901.0000           : END DEPTH
 STEP     .M        0.2500              : INCREMENT DEPTH
 NULL     .         -999.2500           : NULL VALUE
 COMP     .                             :
 WELL     .         DD-1X               : WELL NAME
 EKB      .M        0.0000              : KELLY BUSHING ELEVATION
 EGL      .M        0.0000              : GROUND LEVEL ELEVATION
 FLD      .                              :
 LOC      . X = 451281.4100 Y = 1118162.4900: WELL LOCATION
 PROV     .                              :
 SRVC     .                              :
 PROV     .                              :
 DATE     .                              :
 UWI      .         Unknown              : UNIQUE WELL ID
 API      .                              :
#
~Curve Information Section
#MNEM     .UNIT               Curve #DESCRIPTION
#-----    -----               ----   --------------
 DEPTH    .M                  : 1     Name = Domain Curve - Type = DEPTH
 RHOB     .g/cm3              : 2     Name = Density - Type = Density
 UNKNOWN  .(m/s)*(g/cc)       : 3     Name = P-Impedance_trans - Type = P-Impedance
 DT       .m/s                : 4     Name = P-wave - Type = P-wave
 UNKNOWN  .v/v                : 5     Name = PHIE - Type = Porosity
 UNKNOWN  .(m/s)*(g/cc)       : 6     Name = S-Impedance_trans - Type = S-Impedance
 SDT      .m/s                : 7     Name = S-wave - Type = S-wave
 UNKNOWN  .0.Sw               : 8     Name = SW - Type = Water Saturation
 UNKNOWN  .fraction           : 9     Name = VWCL - Type = Volumetric
 UNKNOWN  .unitless           : 10    Name = VpVs_Ratio - Type = VpVs_Ratio
 UNKNOWN  .md                 : 11    Name = lithology - Type = lithology
~A (ASCII LOG DATA)
# ...
 1533.7500          2.5241      10452.9990       4141.2119          0.0001       5479.8623       2170.9819          1.0000          0.8213          1.9075          1.0000
 1534.0000          2.5214      10425.3301       4134.6914          0.0001       5469.0640       2169.0337          1.0000          0.7455          1.9062          1.0000
 1534.2500          2.5223      10480.9297       4155.3247          0.0001       5508.1587       2183.7930          1.0000          0.7200          1.9028          1.0000
 1534.5000          2.5253      10576.5156       4188.1934          0.0001       5566.6270       2204.3279          0.9894          0.7797          1.9000          1.0000
 1534.7500          2.5278      10646.8135       4211.8936          0.0001       5609.3726       2219.0752          0.9700          0.7765          1.8980          1.0000
 1535.0000          2.5233      10550.7793       4181.2505          0.0001       5551.9473       2200.2207          0.9312          0.7075          1.9004          1.0000
 1535.2500          2.5110      10270.4063       4090.1199          0.0001       5378.9331       2142.1194          0.7953          0.6579          1.9094          1.0000
 1535.5000          2.4956       9896.6260       3965.4778          0.0001       5141.6416       2060.1892          0.9238          0.6744          1.9249          1.0000
 1535.7500          2.4841       9590.4463       3860.5999          0.0002       4944.4336       1990.3557          1.0000          0.7529          1.9397          1.0000
 1536.0000          2.4698       9219.2959       3732.7542          0.0010       4712.3906       1907.9696          1.0000          0.7715          1.9564          1.0000
 1536.2500          2.4560       8900.3691       3623.8704          0.0021       4520.6660       1840.6211          1.0000          0.7381          1.9689          1.0000
 1536.5000          2.4441       8646.5840       3537.7957          0.0022       4367.9438       1787.1654          1.0000          0.7355          1.9796          1.0000
 1536.7500          2.4379       8547.2422       3506.0225          0.0012       4310.2695       1768.0444          1.0000          0.7609          1.9830          1.0000
 1537.0000          2.4347       8527.9150       3502.5972          0.0013       4304.1470       1767.8058          1.0000          0.7598          1.9813          1.0000
 1537.2500          2.4259       8445.2266       3481.2454          0.0017       4263.8052       1757.6016          1.0000          0.7456          1.9807          1.0000
 1537.5000          2.4110       8270.7529       3430.4292          0.0031       4166.7051       1728.2046          0.9978          0.7197          1.9850          1.0000
 1537.7500          2.3953       8090.0396       3377.4451          0.0042       4068.4150       1698.4885          0.9998          0.7058          1.9885          1.0000
 1538.0000          2.3827       7956.1753       3339.0901          0.0586       3999.0024       1678.3226          0.8413          0.5918          1.9895          1.0000
 1538.2500          2.3683       7791.6826       3289.9675          0.1384       3907.5586       1649.9266          0.5760          0.4596          1.9940          1.0000
 1538.5000          2.3502       7567.4233       3219.7478          0.1429       3772.8740       1605.2480          0.5287          0.4729          2.0058          1.0000
 1538.7500          2.3329       7365.4063       3157.1494          0.1635       3651.3638       1565.1375          0.5086          0.4242          2.0172          1.0000
 1539.0000          2.3200       7255.4717       3127.3713          0.1858       3592.9475       1548.6913          0.5494          0.3568          2.0194          5.0000
 1539.2500          2.3111       7201.4170       3116.0610          0.2067       3572.5430       1545.8475          0.5409          0.2844          2.0158          5.0000
 1539.5000          2.2951       7019.0239       3058.2698          0.2091       3524.1558       1535.5245          0.5172          0.2733          1.9917          5.0000
 1539.7500          2.2771       6793.0352       2983.1250          0.2005       3460.4050       1519.6523          0.4773          0.3205          1.9630          5.0000
 1540.0000          2.2626       6633.3174       2931.6714          0.1957       3433.3501       1517.4167          0.4491          0.3654          1.9320          5.0000
 1540.2500          2.2522       6550.0854       2908.2454          0.2048       3477.2434       1543.9097          0.4079          0.3444          1.8837          5.0000
 1540.5000          2.2450       6475.6074       2884.4836          0.2301       3501.1335       1559.5576          0.3714          0.2379          1.8496          5.0000
 1540.7500          2.2345       6329.2397       2832.4888          0.2507       3487.9397       1560.9476          0.3416          0.1415          1.8146          5.0000
 1541.0000          2.2269       6209.0308       2788.2507          0.2389       3462.8132       1555.0254          0.3072          0.1631          1.7931          5.0000
 1541.2500          2.2264       6206.2202       2787.5178          0.2472       3461.6484       1554.7961          0.3163          0.1595          1.7929          5.0000
 1541.5000          2.2293       6226.4185       2792.9812          0.2646       3465.4248       1554.4844          0.3437          0.1285          1.7967          5.0000
 1541.7500          2.2302       6191.7212       2776.3628          0.2388       3431.4534       1538.6602          0.3596          0.1880          1.8044          5.0000
 1542.0000          2.2282       6095.6509       2735.6665          0.2074       3358.7656       1507.3790          0.3862          0.2699          1.8149          5.0000
 1542.2500          2.2252       5996.3604       2694.7524          0.2097       3289.4946       1478.2914          0.4025          0.2706          1.8229          5.0000
 1542.5000          2.2202       5885.6250       2650.9077          0.2276       3215.2754       1448.1697          0.3926          0.2343          1.8305          5.0000
 1542.7500          2.2103       5723.1855       2589.2451          0.2405       3111.9011       1407.8599          0.3655          0.2108          1.8392          5.0000
 1543.0000          2.1967       5521.0303       2513.2427          0.2490       2990.3137       1361.2267          0.3091          0.1962          1.8463          5.0000
 1543.2500          2.1853       5366.8232       2455.9004          0.2466       2902.5962       1328.2506          0.2905          0.2146          1.8490          5.0000
 1543.5000          2.1793       5309.8477       2436.5369          0.2520       2876.9934       1320.1704          0.2858          0.2102          1.8456          5.0000
 1543.7500          2.1777       5333.1660       2449.0083          0.2559       2900.4231       1331.8842          0.2639          0.2437          1.8388          5.0000
 1544.0000          2.1807       5429.0498       2489.5337          0.2582       2968.6975       1361.3160          0.2585          0.2540          1.8288          5.0000
 1544.2500          2.1874       5578.5776       2550.3169          0.2606       3071.2273       1404.0475          0.2777          0.2007          1.8164          5.0000
 1544.5000          2.1977       5784.6157       2632.0999          0.2463       3209.3372       1460.2980          0.2685          0.2437          1.8025          5.0000
 1544.7500          2.2077       5978.7544       2708.1052          0.2390       3336.7544       1511.3916          0.2517          0.2835          1.7919          5.0000
 1545.0000          2.2217       6239.1113       2808.1697          0.2460       3504.9897       1577.5616          0.2634          0.2293          1.7801          5.0000
 1545.2500          2.2371       6505.4790       2907.8064          0.2405       3674.4739       1642.3990          0.2770          0.1922          1.7705          5.0000
