~VERSION INFORMATION
 VERS.                          2.0   : CWLS LOG ASCII STANDARD - VERSION 2.0
 WRAP.                          NO    : ONE LINE PER DEPTH STEP
#
~Well Information Section
#MNEM     .UNIT     DATA                DESCRIPTION
#-----    -----     --------            --------------
 STRT     .M        1146.0000           : START DEPTH
 STOP     .M        2901.0000           : END DEPTH
 STEP     .M        0.2500              : INCREMENT DEPTH
 NULL     .         -999.2500           : NULL VALUE
 COMP     .                             :
 WELL     .         DD-1X               : WELL NAME
 EKB      .M        0.0000              : KELLY BUSHING ELEVATION
 EGL      .M        0.0000              : GROUND LEVEL ELEVATION
 FLD      .                              :
 LOC      . X = 451281.4100 Y = 1118162.4900: WELL LOCATION
 PROV     .                              :
 SRVC     .                              :
 PROV     .                              :
 DATE     .                              :
 UWI      .         Unknown              : UNIQUE WELL ID
 API      .                              :
#
~Curve Information Section
#MNEM     .UNIT               Curve #DESCRIPTION
#-----    -----               ----   --------------
 DEPTH    .M                  : 1     Name = Domain Curve - Type = DEPTH
 RHOB     .g/cm3              : 2     Name = Density - Type = Density
 UNKNOWN  .(m/s)*(g/cc)       : 3     Name = P-Impedance_trans - Type = P-Impedance
 DT       .m/s                : 4     Name = P-wave - Type = P-wave
 UNKNOWN  .v/v                : 5     Name = PHIE - Type = Porosity
 UNKNOWN  .(m/s)*(g/cc)       : 6     Name = S-Impedance_trans - Type = S-Impedance
 SDT      .m/s                : 7     Name = S-wave - Type = S-wave
 UNKNOWN  .0.Sw               : 8     Name = SW - Type = Water Saturation
 UNKNOWN  .fraction           : 9     Name = VWCL - Type = Volumetric
 UNKNOWN  .unitless           : 10    Name = VpVs_Ratio - Type = VpVs_Ratio
 UNKNOWN  .md                 : 11    Name = lithology - Type = lithology
~A (ASCII LOG DATA)
# ...
 1169.5000       -999.2500       -999.2500       -999.2500       -999.2500       -999.2500       -999.2500       -999.2500       -999.2500       -999.2500          4.0000
 1169.7500       -999.2500       -999.2500       -999.2500       -999.2500       -999.2500       -999.2500       -999.2500       -999.2500       -999.2500          4.0000
 1170.0000       -999.2500       -999.2500       2772.7710       -999.2500       -999.2500       1293.8518       -999.2500       -999.2500          2.1430          4.0000
 1170.2500          2.1045       5884.7231       2796.2258       -999.2500       2735.0857       1299.6218       -999.2500       -999.2500          2.1516          4.0000
 1170.5000          2.1125       5962.7363       2822.5503       -999.2500       2783.6511       1317.6699       -999.2500       -999.2500          2.1422          4.0000
 1170.7500          2.1209       6040.7031       2848.1821       -999.2500       2844.3738       1341.1188       -999.2500       -999.2500          2.1237          4.0000
 1171.0000          2.1243       6078.2637       2861.3342       -999.2500       2862.3965       1347.4725       -999.2500       -999.2500          2.1235          4.0000
 1171.2500          2.1151       6005.9482       2839.5173       -999.2500       2859.2664       1351.8274       -999.2500       -999.2500          2.1005          4.0000
 1171.5000          2.1068       5933.8237       2816.4629       -999.2500       2850.7324       1353.0897       -999.2500       -999.2500          2.0815          4.0000
 1171.7500          2.1023       5913.3975       2812.8462       -999.2500       2830.4153       1346.3556       -999.2500       -999.2500          2.0892          4.0000
 1172.0000          2.1097       5934.3184       2812.8462       -999.2500       2815.3960       1334.4972       -999.2500       -999.2500          2.1078          4.0000
 1172.2500          2.1200       5963.1396       2812.8462       -999.2500       2817.5957       1329.0754       -999.2500       -999.2500          2.1164          4.0000
 1172.5000          2.1074       5946.5596       2821.8193       -999.2500       2815.7124       1336.1462       -999.2500       -999.2500          2.1119          4.0000
 1172.7500          2.0924       5905.2979       2822.2222       -999.2500       2807.3987       1341.6960       -999.2500       -999.2500          2.1035          4.0000
 1173.0000          2.0937       5908.7822       2822.2222       -999.2500       2818.5198       1346.2131       -999.2500       -999.2500          2.0964          4.0000
 1173.2500          2.0996       6002.0254       2858.6248       -999.2500       2847.8088       1356.3510       -999.2500       -999.2500          2.1076          4.0000
 1173.5000          2.1098       6071.8657       2877.8640       -999.2500       2873.0449       1361.7288       -999.2500       -999.2500          2.1134          4.0000
 1173.7500          2.1189       6171.4341       2912.5471       -999.2500       2907.8782       1372.3448       -999.2500       -999.2500          2.1223          4.0000
 1174.0000          2.1221       6197.9712       2920.6592       -999.2500       2938.9023       1384.8845       -999.2500       -999.2500          2.1090          4.0000
 1174.2500          2.1351       6235.8101       2920.6592       -999.2500       2974.5955       1393.2125       -999.2500       -999.2500          2.0964          4.0000
 1174.5000          2.1626       6325.4209       2924.9292       -999.2500       3033.9636       1402.9360       -999.2500       -999.2500          2.0849          4.0000
 1174.7500          2.1625       6438.6973       2977.4885       -999.2500       2992.2805       1383.6769       -999.2500       -999.2500          2.1521          4.0000
 1175.0000          2.1258       6365.7573       2994.5195       -999.2500       2863.3889       1346.8927       -999.2500       -999.2500          2.2236          4.0000
 1175.2500          2.1149       6183.1333       2923.7808       -999.2500       2770.8367       1310.1957       -999.2500       -999.2500          2.2315          4.0000
 1175.5000          2.1259       5991.2793       2818.2371       -999.2500       2763.9509       1300.1274       -999.2500       -999.2500          2.1677          4.0000
 1175.7500          2.1101       5772.4492       2735.6177       -999.2500       2634.0857       1248.2792       -999.2500       -999.2500          2.1921          4.0000
 1176.0000          2.1003       5692.5469       2710.3628       -999.2500       2553.7561       1215.8953       -999.2500       -999.2500          2.2300          4.0000
 1176.2500          2.0959       5655.9082       2698.5605       -999.2500       2470.5623       1178.7693       -999.2500       -999.2500          2.2894          4.0000
 1176.5000          2.0864       5641.1094       2703.8054       -999.2500       2477.3669       1187.3994       -999.2500       -999.2500          2.2774          4.0000
 1176.7500          2.0855       5655.2075       2711.7136       -999.2500       2465.6875       1182.3121       -999.2500       -999.2500          2.2936          4.0000
 1177.0000          2.0804       5653.5264       2717.5010       -999.2500       2458.1047       1181.5415       -999.2500       -999.2500          2.3000          4.0000
 1177.2500          2.0984       5737.3662       2733.9824       -999.2500       2559.3755       1219.5955       -999.2500       -999.2500          2.2417          4.0000
 1177.5000          2.1446       6146.1602       2865.5388       -999.2500       2774.6013       1293.5691       -999.2500       -999.2500          2.2155          4.0000
 1177.7500          2.1442       6359.1494       2965.7876       -999.2500       2907.5225       1356.0503       -999.2500       -999.2500          2.1873          4.0000
 1178.0000          2.1221       6210.7759       2926.7114       -999.2500       2978.7075       1403.6582       -999.2500       -999.2500          2.0851          4.0000
 1178.2500          2.1576       6250.2783       2897.0220       -999.2500       3091.8738       1432.8698       -999.2500       -999.2500          2.0221          4.0000
 1178.5000          2.2388       6496.1694       2901.3530       -999.2500       3287.7888       1468.3408       -999.2500       -999.2500          1.9760          4.0000
 1178.7500          2.3022       7110.1655       3088.2332       -999.2500       3456.4858       1501.3844       -999.2500       -999.2500          2.0568          4.0000
 1179.0000          2.2897       7250.3242       3166.2993       -999.2500       3426.2278       1496.2495       -999.2500       -999.2500          2.1162          4.0000
 1179.2500          2.2318       6837.2402       3063.1252       -999.2500       3284.1272       1471.5646       -999.2500       -999.2500          2.0817          4.0000
 1179.5000          2.1865       6368.1885       2912.3557       -999.2500       3224.2537       1474.6003       -999.2500       -999.2500          1.9750          4.0000
 1179.7500          2.1889       6254.9102       2857.5962       -999.2500       3185.9436       1455.5302       -999.2500       -999.2500          1.9633          4.0000
 1180.0000          2.2256       6491.9746       2916.6177       -999.2500       3243.1970       1457.1812       -999.2500       -999.2500          2.0015          4.0000
 1180.2500          2.2847       6995.8896       3061.6089       -999.2500       3403.0771       1489.3739       -999.2500       -999.2500          2.0555          4.0000
 1180.5000          2.3011       7293.9341       3169.8289       -999.2500       3523.2249       1531.1418       -999.2500       -999.2500          2.0703          4.0000
 1180.7500          2.2978       7506.4316       3266.8887       -999.2500       3684.9265       1603.6056       -999.2500       -999.2500          2.0376          4.0000
 1181.0000          2.3420       7613.6904       3250.6038       -999.2500       3848.0286       1642.9908       -999.2500       -999.2500          1.9785          4.0000
