~VERSION INFORMATION
 VERS.                          2.0   : CWLS LOG ASCII STANDARD - VERSION 2.0
 WRAP.                          NO    : ONE LINE PER DEPTH STEP
#
~Well Information Section
#MNEM     .UNIT     DATA                DESCRIPTION
#-----    -----     --------            --------------
 STRT     .M        1146.0000           : START DEPTH
 STOP     .M        2901.0000           : END DEPTH
 STEP     .M        0.2500              : INCREMENT DEPTH
 NULL     .         -999.2500           : NULL VALUE
 COMP     .                             :
 WELL     .         DD-1X               : WELL NAME
 EKB      .M        0.0000              : KELLY BUSHING ELEVATION
 EGL      .M        0.0000              : GROUND LEVEL ELEVATION
 FLD      .                              :
 LOC      . X = 451281.4100 Y = 1118162.4900: WELL LOCATION
 PROV     .                              :
 SRVC     .                              :
 PROV     .                              :
 DATE     .                              :
 UWI      .         Unknown              : UNIQUE WELL ID
 API      .                              :
#
~Curve Information Section
#MNEM     .UNIT               Curve #DESCRIPTION
#-----    -----               ----   --------------
 DEPTH    .M                  : 1     Name = Domain Curve - Type = DEPTH
 RHOB     .g/cm3              : 2     Name = Density - Type = Density
 UNKNOWN  .(m/s)*(g/cc)       : 3     Name = P-Impedance_trans - Type = P-Impedance
 DT       .m/s                : 4     Name = P-wave - Type = P-wave
 UNKNOWN  .v/v                : 5     Name = PHIE - Type = Porosity
 UNKNOWN  .(m/s)*(g/cc)       : 6     Name = S-Impedance_trans - Type = S-Impedance
 SDT      .m/s                : 7     Name = S-wave - Type = S-wave
 UNKNOWN  .0.Sw               : 8     Name = SW - Type = Water Saturation
 UNKNOWN  .fraction           : 9     Name = VWCL - Type = Volumetric
 UNKNOWN  .unitless           : 10    Name = VpVs_Ratio - Type = VpVs_Ratio
 UNKNOWN  .md                 : 11    Name = lithology - Type = lithology
~A (ASCII LOG DATA)
# ...
 1710.0000          2.4202       7626.0947       3150.9817          0.0001       3603.5723       1488.9390          1.0000          0.9368          2.1163          1.0000
 1710.2500          2.4188       7647.1172       3161.4922          0.0001       3626.0889       1499.1080          1.0000          0.9082          2.1090          1.0000
 1710.5000          2.4186       7755.4541       3206.6389          0.0064       3717.3330       1537.0017          1.0000          0.7376          2.0863          1.0000
 1710.7500          2.4151       7834.4839       3243.9944          0.0200       3796.8501       1572.1552          1.0000          0.6307          2.0635          1.0000
 1711.0000          2.4044       7814.7754       3250.2075          0.0111       3812.4668       1585.6273          1.0000          0.6626          2.0498          1.0000
 1711.2500          2.3788       7624.7104       3205.2529          0.0047       3726.9189       1566.7122          1.0000          0.7027          2.0458          1.0000
 1711.5000          2.3574       7480.8740       3173.3611          0.0154       3667.0129       1555.5453          1.0000          0.6561          2.0400          1.0000
 1711.7500          2.3373       7384.7412       3159.5356          0.0841       3642.9570       1558.6338          1.0000          0.5438          2.0271          1.0000
 1712.0000          2.3174       7286.0171       3144.0427          0.2080       3614.8467       1559.8754          0.9193          0.3571          2.0156          4.0000
 1712.2500          2.2955       7113.1655       3098.7114          0.2327       3531.9421       1538.6171          0.9315          0.2608          2.0140          4.0000
 1712.5000          2.2738       6910.8975       3039.2813          0.2164       3418.0112       1503.1700          0.9916          0.2393          2.0219          4.0000
 1712.7500          2.2636       6820.9751       3013.2800          0.2090       3366.9268       1487.3961          0.9173          0.2036          2.0259          4.0000
 1713.0000          2.2637       6827.9575       3016.2510          0.2308       3372.4602       1489.7841          0.9132          0.1747          2.0246          4.0000
 1713.2500          2.2720       6910.6455       3041.5984          0.2450       3421.3779       1505.8557          0.9073          0.1875          2.0199          4.0000
 1713.5000          2.2868       7049.0884       3082.4880          0.2422       3497.2727       1529.3171          0.8811          0.2120          2.0156          4.0000
 1713.7500          2.2998       7159.3599       3113.0239          0.2292       3554.5247       1545.5731          0.9027          0.2662          2.0142          4.0000
 1714.0000          2.3121       7269.3770       3144.1040          0.1417       3615.8174       1563.8888          0.9828          0.4486          2.0104          1.0000
 1714.2500          2.3169       7336.0952       3166.3374          0.0645       3660.5229       1579.9204          0.9995          0.5546          2.0041          2.0000
 1714.5000          2.3140       7336.7905       3170.5774          0.1120       3668.4214       1585.3007          1.0000          0.4926          2.0000          1.0000
 1714.7500          2.2992       7239.6675       3148.7729          0.1607       3620.0884       1574.4961          0.9208          0.4029          1.9999          4.0000
 1715.0000          2.2760       7049.8892       3097.4026          0.2087       3517.1519       1545.2678          0.9945          0.3034          2.0045          4.0000
 1715.2500          2.2462       6813.7324       3033.3716          0.2600       3393.4138       1510.6979          0.9713          0.1785          2.0079          4.0000
 1715.5000          2.2164       6647.5615       2999.1970          0.2877       3321.1965       1498.4443          0.9068          0.1129          2.0016          4.0000
 1715.7500          2.2033       6660.5679       3022.9495          0.2914       3359.2288       1524.6188          0.8921          0.1371          1.9829          4.0000
 1716.0000          2.2013       6842.6938       3108.4434          0.2909       3509.6057       1594.3129          0.9182          0.1497          1.9498          4.0000
 1716.2500          2.2028       7018.2534       3185.9922          0.2920       3648.9402       1656.4655          0.9515          0.1093          1.9235          4.0000
 1716.5000          2.2015       7113.0923       3231.0139          0.2769       3729.4819       1694.0615          0.9968          0.0988          1.9073          4.0000
 1716.7500          2.1971       7124.1021       3242.4875          0.2681       3746.1235       1705.0233          0.9791          0.0690          1.9017          4.0000
 1717.0000          2.1932       7089.7437       3232.5349          0.2910       3725.5732       1698.6564          0.9807          0.0132          1.9030          4.0000
 1717.2500          2.1882       7000.6260       3199.1765          0.3088       3662.6272       1673.7594          0.9491          0.0178          1.9114          4.0000
 1717.5000          2.1789       6826.6113       3132.9563          0.3139       3540.7991       1624.9763          0.9305          0.0601          1.9281          4.0000
 1717.7500          2.1672       6611.8105       3050.8000          0.3114       3390.6309       1564.4841          0.9539          0.0847          1.9501          4.0000
 1718.0000          2.1607       6474.5884       2996.5137          0.3109       3291.5437       1523.3607          0.9557          0.0891          1.9671          4.0000
 1718.2500          2.1581       6379.6987       2956.1138          0.3013       3218.7378       1491.4424          0.9855          0.0821          1.9821          4.0000
 1718.5000          2.1577       6320.5474       2929.3062          0.2969       3170.5283       1469.4056          0.9995          0.0734          1.9936          4.0000
 1718.7500          2.1573       6273.4150       2908.0154          0.3007       3132.0447       1451.8461          0.9942          0.0740          2.0030          4.0000
 1719.0000          2.1557       6216.6240       2883.8582          0.3103       3087.6423       1432.3398          0.9346          0.0766          2.0134          4.0000
 1719.2500          2.1539       6170.0645       2864.5952          0.3119       3052.2417       1417.0730          0.9214          0.0840          2.0215          4.0000
 1719.5000          2.1529       6128.8076       2846.7686          0.3051       3019.4539       1402.5054          0.9363          0.0757          2.0298          4.0000
 1719.7500          2.1547       6127.6655       2843.8811          0.3050       3015.1038       1399.3251          0.9536          0.0786          2.0323          4.0000
 1720.0000          2.1576       6152.3926       2851.4487          0.3075       3030.3889       1404.4937          0.9638          0.0703          2.0302          4.0000
 1720.2500          2.1616       6190.1665       2863.7090          0.2999       3054.3684       1413.0188          0.9986          0.0599          2.0267          4.0000
 1720.5000          2.1644       6207.4565       2867.9844          0.2996       3064.1013       1415.6838          1.0000          0.0566          2.0259          4.0000
 1720.7500          2.1666       6208.1221       2865.3958          0.2984       3060.0178       1412.3696          1.0000          0.0768          2.0288          4.0000
 1721.0000          2.1685       6196.6694       2857.5356          0.2928       3046.4900       1404.8604          1.0000          0.1206          2.0340          4.0000
 1721.2500          2.1690       6180.0576       2849.2695          0.2934       3031.4163       1397.6117          0.9991          0.1163          2.0387          4.0000
 1721.5000          2.1675       6149.9165       2837.3416          0.2996       3008.9009       1388.1941          0.9900          0.0979          2.0439          4.0000
