~VERSION INFORMATION
 VERS.                          2.0   : CWLS LOG ASCII STANDARD - VERSION 2.0
 WRAP.                          NO    : ONE LINE PER DEPTH STEP
#
~Well Information Section
#MNEM     .UNIT     DATA                DESCRIPTION
#-----    -----     --------            --------------
 STRT     .M        1146.0000           : START DEPTH
 STOP     .M        2901.0000           : END DEPTH
 STEP     .M        0.2500              : INCREMENT DEPTH
 NULL     .         -999.2500           : NULL VALUE
 COMP     .                             :
 WELL     .         DD-1X               : WELL NAME
 EKB      .M        0.0000              : KELLY BUSHING ELEVATION
 EGL      .M        0.0000              : GROUND LEVEL ELEVATION
 FLD      .                              :
 LOC      . X = 451281.4100 Y = 1118162.4900: WELL LOCATION
 PROV     .                              :
 SRVC     .                              :
 PROV     .                              :
 DATE     .                              :
 UWI      .         Unknown              : UNIQUE WELL ID
 API      .                              :
#
~Curve Information Section
#MNEM     .UNIT               Curve #DESCRIPTION
#-----    -----               ----   --------------
 DEPTH    .M                  : 1     Name = Domain Curve - Type = DEPTH
 RHOB     .g/cm3              : 2     Name = Density - Type = Density
 UNKNOWN  .(m/s)*(g/cc)       : 3     Name = P-Impedance_trans - Type = P-Impedance
 DT       .m/s                : 4     Name = P-wave - Type = P-wave
 UNKNOWN  .v/v                : 5     Name = PHIE - Type = Porosity
 UNKNOWN  .(m/s)*(g/cc)       : 6     Name = S-Impedance_trans - Type = S-Impedance
 SDT      .m/s                : 7     Name = S-wave - Type = S-wave
 UNKNOWN  .0.Sw               : 8     Name = SW - Type = Water Saturation
 UNKNOWN  .fraction           : 9     Name = VWCL - Type = Volumetric
 UNKNOWN  .unitless           : 10    Name = VpVs_Ratio - Type = VpVs_Ratio
 UNKNOWN  .md                 : 11    Name = lithology - Type = lithology
~A (ASCII LOG DATA)
# ...
 1768.7500          2.1606       5904.2666       2732.6660          0.2675       2815.4680       1303.0758          1.0000          0.2048          2.0972          4.0000
 1769.0000          2.1536       5763.1157       2676.0122          0.2853       2705.4312       1256.2142          1.0000          0.2439          2.1305          4.0000
 1769.2500          2.1479       5614.6558       2613.9956          0.2773       2585.3945       1203.6680          1.0000          0.3177          2.1719          4.0000
 1769.5000          2.1502       5571.3198       2591.0903          0.2788       2541.6978       1182.0854          1.0000          0.2864          2.1920          4.0000
 1769.7500          2.1726       5765.1763       2653.4172          0.2888       2655.9065       1222.3270          1.0000          0.2631          2.1712          4.0000
 1770.0000          2.2111       6194.7642       2801.3057          0.2851       2928.9351       1324.3912          1.0000          0.2736          2.1158          4.0000
 1770.2500          2.2500       6644.5420       2952.7480          0.1948       3213.4255       1427.9402          1.0000          0.4071          2.0682          1.0000
 1770.5000          2.2958       7201.4634       3136.3977          0.0269       3567.5669       1553.6847          1.0000          0.6675          2.0191          2.0000
 1770.7500          2.3326       7679.3491       3291.7495          0.0626       3880.5212       1663.3022          0.9155          0.5468          1.9795          2.0000
 1771.0000          2.3659       8128.6250       3435.7463          0.1392       4182.1235       1767.6552          0.8705          0.2736          1.9437          3.0000
 1771.2500          2.3807       8348.7500       3506.8096          0.1367       4330.5059       1818.9801          0.9498          0.2216          1.9279          3.0000
 1771.5000          2.3796       8344.1279       3506.5347          0.1458       4330.6704       1819.9197          0.9107          0.2620          1.9268          3.0000
 1771.7500          2.3686       8206.7559       3464.7708          0.1744       4250.0664       1794.3142          0.7759          0.3093          1.9310          4.0000
 1772.0000          2.3580       8077.3462       3425.4246          0.1764       4175.8555       1770.8839          0.8896          0.3250          1.9343          4.0000
 1772.2500          2.3464       7933.6729       3381.1458          0.1719       4092.4592       1744.1102          0.9916          0.3047          1.9386          3.0000
 1772.5000          2.3477       7968.6318       3394.1501          0.1768       4116.5503       1753.3911          1.0000          0.2178          1.9358          3.0000
 1772.7500          2.3648       8223.8350       3477.5295          0.1699       4269.7061       1805.4767          1.0000          0.2343          1.9261          3.0000
 1773.0000          2.3902       8569.6475       3585.2021          0.1661       4467.8506       1869.1676          1.0000          0.2593          1.9181          3.0000
 1773.2500          2.4124       8832.7666       3661.2617          0.1390       4610.1021       1910.9285          0.9421          0.2886          1.9160          3.0000
 1773.5000          2.4330       9057.5225       3722.7756          0.0951       4727.3569       1943.0138          0.8319          0.3966          1.9160          2.0000
 1773.7500          2.4494       9230.5762       3768.4072          0.0481       4816.7705       1966.4596          0.9858          0.5365          1.9163          2.0000
 1774.0000          2.4541       9234.4990       3762.8962          0.0088       4805.8379       1958.2932          1.0000          0.7133          1.9215          2.0000
 1774.2500          2.4412       8964.8359       3672.1809          0.0004       4626.4121       1895.0466          1.0000          0.8253          1.9379          2.0000
 1774.5000          2.4162       8574.5361       3548.6370          0.0153       4389.2139       1816.5013          1.0000          0.6880          1.9536          2.0000
 1774.7500          2.3934       8310.9131       3472.4131          0.1085       4250.3921       1775.8749          0.8873          0.4819          1.9553          4.0000
 1775.0000          2.3743       8148.7422       3431.9878          0.1765       4178.8984       1760.0248          0.8257          0.3150          1.9500          4.0000
 1775.2500          2.3384       7722.3140       3302.2717          0.1994       3993.5222       1707.7521          0.9558          0.2378          1.9337          4.0000
 1775.5000          2.2922       7121.6440       3106.0132          0.1803       3695.7192       1611.8608          0.8869          0.2634          1.9269          3.0000
 1775.7500          2.2480       6583.9976       2928.6619          0.1695       3432.6824       1526.9139          0.8830          0.2375          1.9180          3.0000
 1776.0000          2.2298       6448.0210       2891.7146          0.2134       3367.9231       1510.3970          0.8332          0.1905          1.9146          4.0000
 1776.2500          2.2321       6517.7939       2920.0493          0.2877       3418.5928       1531.5692          0.7232          0.1969          1.9066          5.0000
 1776.5000          2.2363       6542.4121       2925.5488          0.3214       3428.1589       1532.9592          0.6348          0.2542          1.9084          5.0000
 1776.7500          2.2429       6553.5073       2921.8074          0.2238       3408.5559       1519.6864          0.7937          0.3663          1.9226          4.0000
 1777.0000          2.2661       6833.6973       3015.2769          0.1537       3516.6519       1551.6881          0.9457          0.3172          1.9432          3.0000
 1777.2500          2.3208       7566.6719       3259.6309          0.1603       3892.2666       1676.7408          0.9252          0.1856          1.9440          3.0000
 1777.5000          2.3663       8157.3579       3446.9866          0.1818       4211.3662       1779.5363          0.8967          0.1617          1.9371          3.0000
 1777.7500          2.3942       8446.3594       3527.8730          0.1574       4371.2422       1825.7838          0.9147          0.3300          1.9322          3.0000
 1778.0000          2.4059       8530.0049       3545.4182          0.1008       4403.5156       1830.2821          0.9695          0.5132          1.9371          2.0000
 1778.2500          2.4158       8645.7578       3578.8330          0.0356       4466.5537       1848.8861          0.9992          0.6069          1.9357          2.0000
 1778.5000          2.4260       8822.5127       3636.6775          0.0127       4578.9819       1887.4705          1.0000          0.6538          1.9268          2.0000
 1778.7500          2.4312       8967.6807       3688.5461          0.0694       4678.6997       1924.4210          1.0000          0.5305          1.9167          2.0000
 1779.0000          2.4284       9004.5762       3708.0608          0.0987       4717.8735       1942.8104          0.9713          0.4262          1.9086          3.0000
 1779.2500          2.4174       8927.5859       3692.9697          0.1073       4686.4492       1938.5917          0.9960          0.4133          1.9050          2.0000
 1779.5000          2.3950       8658.1807       3614.9651          0.1066       4591.8481       1917.2106          0.9995          0.4167          1.8855          3.0000
 1779.7500          2.3766       8426.2910       3545.5051          0.1277       4515.8818       1900.1541          0.9936          0.2920          1.8659          3.0000
 1780.0000          2.3578       8213.5732       3483.6208          0.1628       4410.4292       1870.5924          0.8966          0.2035          1.8623          4.0000
 1780.2500          2.3402       7974.5029       3407.4580          0.1871       4263.4033       1821.7161          0.8332          0.1830          1.8705          4.0000
