~VERSION INFORMATION
 VERS.                          2.0   : CWLS LOG ASCII STANDARD - VERSION 2.0
 WRAP.                          NO    : ONE LINE PER DEPTH STEP
#
~Well Information Section
#MNEM     .UNIT     DATA                DESCRIPTION
#-----    -----     --------            --------------
 STRT     .M        1146.0000           : START DEPTH
 STOP     .M        2901.0000           : END DEPTH
 STEP     .M        0.2500              : INCREMENT DEPTH
 NULL     .         -999.2500           : NULL VALUE
 COMP     .                             :
 WELL     .         DD-1X               : WELL NAME
 EKB      .M        0.0000              : KELLY BUSHING ELEVATION
 EGL      .M        0.0000              : GROUND LEVEL ELEVATION
 FLD      .                              :
 LOC      . X = 451281.4100 Y = 1118162.4900: WELL LOCATION
 PROV     .                              :
 SRVC     .                              :
 PROV     .                              :
 DATE     .                              :
 UWI      .         Unknown              : UNIQUE WELL ID
 API      .                              :
#
~Curve Information Section
#MNEM     .UNIT               Curve #DESCRIPTION
#-----    -----               ----   --------------
 DEPTH    .M                  : 1     Name = Domain Curve - Type = DEPTH
 RHOB     .g/cm3              : 2     Name = Density - Type = Density
 UNKNOWN  .(m/s)*(g/cc)       : 3     Name = P-Impedance_trans - Type = P-Impedance
 DT       .m/s                : 4     Name = P-wave - Type = P-wave
 UNKNOWN  .v/v                : 5     Name = PHIE - Type = Porosity
 UNKNOWN  .(m/s)*(g/cc)       : 6     Name = S-Impedance_trans - Type = S-Impedance
 SDT      .m/s                : 7     Name = S-wave - Type = S-wave
 UNKNOWN  .0.Sw               : 8     Name = SW - Type = Water Saturation
 UNKNOWN  .fraction           : 9     Name = VWCL - Type = Volumetric
 UNKNOWN  .unitless           : 10    Name = VpVs_Ratio - Type = VpVs_Ratio
 UNKNOWN  .md                 : 11    Name = lithology - Type = lithology
~A (ASCII LOG DATA)
# ...
 2015.5000          2.2573       6546.3623       2900.0405          0.1145       3462.3279       1533.8125          0.9987          0.4690          1.8907          4.0000
 2015.7500          2.2524       6505.5176       2888.1719          0.1512       3458.4890       1535.4291          0.9833          0.4085          1.8810          1.0000
 2016.0000          2.2463       6352.8442       2828.1018          0.0655       3397.5986       1512.5117          0.9992          0.5499          1.8698          1.0000
 2016.2500          2.2476       6303.1782       2804.4380          0.0374       3327.2783       1480.3982          1.0000          0.5895          1.8944          1.0000
 2016.5000          2.2652       6456.3262       2850.1348          0.0922       3331.6807       1470.8105          1.0000          0.5262          1.9378          1.0000
 2016.7500          2.2898       6670.3345       2912.9729          0.0792       3366.9119       1470.3973          0.9998          0.5382          1.9811          1.0000
 2017.0000          2.3148       6839.9346       2954.8196          0.0993       3361.4983       1452.2092          0.9772          0.5243          2.0349          1.0000
 2017.2500          2.3389       6959.9419       2975.7151          0.0359       3362.3208       1437.5723          0.9978          0.6625          2.0700          1.0000
 2017.5000          2.3698       7231.3813       3051.2197          0.0001       3454.0881       1457.4569          1.0000          0.9169          2.0934          1.0000
 2017.7500          2.3976       7547.5898       3147.8318          0.0001       3606.4883       1504.1202          1.0000          0.9650          2.0929          1.0000
 2018.0000          2.4100       7695.7476       3193.2759          0.0001       3699.0469       1534.8828          1.0000          0.9977          2.0805          1.0000
 2018.2500          2.4040       7653.2588       3183.5764          0.0001       3681.4294       1531.3890          1.0000          0.9995          2.0789          2.0000
 2018.5000          2.3887       7544.9976       3158.5842          0.0001       3635.5046       1521.9438          1.0000          0.9366          2.0754          2.0000
 2018.7500          2.3702       7433.9424       3136.4031          0.0035       3596.6279       1517.4374          1.0000          0.7437          2.0669          1.0000
 2019.0000          2.3548       7352.6528       3122.4126          0.0111       3573.4771       1517.5334          1.0000          0.6582          2.0576          1.0000
 2019.2500          2.3479       7426.1582       3162.9004          0.0192       3654.4458       1556.4760          1.0000          0.6369          2.0322          1.0000
 2019.5000          2.3542       7663.8643       3255.2424          0.1038       3825.7881       1624.9902          0.9971          0.5033          2.0035          1.0000
 2019.7500          2.3669       7978.1196       3370.7319          0.1293       4039.4285       1706.6409          0.8976          0.4671          1.9751          2.0000
 2020.0000          2.3751       8162.9365       3436.8271          0.0563       4195.0728       1766.2448          0.8781          0.5468          1.9459          2.0000
 2020.2500          2.3733       8154.1235       3435.8040          0.0700       4247.3271       1789.6467          0.7039          0.3772          1.9198          3.0000
 2020.5000          2.3663       8132.8633       3436.9607          0.0946       4248.0063       1795.2144          0.9267          0.1580          1.9145          3.0000
 2020.7500          2.3495       7958.8726       3387.3606          0.0815       4146.2158       1764.6377          1.0000          0.2631          1.9197          4.0000
 2021.0000          2.3176       7523.2900       3245.8005          0.0937       3870.9863       1670.0222          1.0000          0.4707          1.9438          1.0000
 2021.2500          2.2799       6962.3701       3053.4075          0.0817       3508.5137       1538.6119          1.0000          0.5409          1.9851          1.0000
 2021.5000          2.2510       6516.9727       2895.0808          0.0424       3215.4756       1428.4014          1.0000          0.5904          2.0271          1.0000
 2021.7500          2.2429       6384.8013       2846.6885          0.1055       3071.5259       1369.4551          1.0000          0.5169          2.0789          1.0000
 2022.0000          2.2511       6422.6113       2853.0491          0.1259       3056.0535       1357.5627          1.0000          0.5002          2.1016          1.0000
 2022.2500          2.2686       6492.9834       2862.1213          0.1027       3071.5764       1353.9655          1.0000          0.5211          2.1139          1.0000
 2022.5000          2.2857       6570.6089       2874.6748          0.0305       3094.4680       1353.8523          1.0000          0.6161          2.1233          1.0000
 2022.7500          2.3141       6793.1196       2935.5293          0.0029       3208.8933       1386.6589          1.0000          0.7225          2.1170          1.0000
 2023.0000          2.3399       7059.9624       3017.0964          0.0030       3368.9221       1439.6925          0.9977          0.7215          2.0958          1.0000
 2023.2500          2.3575       7241.7515       3071.7688          0.0017       3477.9172       1475.2438          0.9334          0.7527          2.0822          1.0000
 2023.5000          2.3593       7237.8345       3067.7319          0.0003       3470.0444       1470.7657          0.7684          0.8249          2.0858          1.0000
 2023.7500          2.3522       7172.9063       3049.4158          0.0004       3433.5615       1459.7101          0.7869          0.8108          2.0891          1.0000
 2024.0000          2.3434       7147.3320       3049.9939          0.0029       3437.6003       1466.9359          0.9858          0.7311          2.0792          1.0000
 2024.2500          2.3302       7085.7041       3040.7202          0.0113       3420.5142       1467.8588          1.0000          0.6600          2.0715          1.0000
 2024.5000          2.3103       6907.2520       2989.6335          0.0136       3323.0935       1438.3081          1.0000          0.6471          2.0786          1.0000
 2024.7500          2.2843       6637.0249       2905.4788          0.0131       3160.7842       1383.6779          1.0000          0.6498          2.0999          1.0000
 2025.0000          2.2704       6506.1387       2865.5950          0.0261       3083.0725       1357.9220          1.0000          0.6141          2.1103          1.0000
 2025.2500          2.2673       6488.6055       2861.8489          0.0519       3075.9624       1356.6763          1.0000          0.5691          2.1095          1.0000
 2025.5000          2.2729       6543.5664       2878.9595          0.0915       3108.0464       1367.4407          1.0000          0.5294          2.1054          1.0000
 2025.7500          2.2805       6583.5332       2886.8635          0.0451       3121.7891       1368.8988          1.0000          0.5890          2.1089          1.0000
 2026.0000          2.2903       6626.0361       2893.0664          0.0240       3132.7473       1367.8259          0.9720          0.6467          2.1151          1.0000
 2026.2500          2.3070       6731.5977       2917.9065          0.0953       3179.0876       1378.0186          0.8793          0.5135          2.1175          1.0000
 2026.5000          2.3306       6915.5161       2967.2349          0.0416       3274.5298       1404.9935          1.0000          0.5845          2.1119          1.0000
 2026.7500          2.3541       7101.1597       3016.4795          0.0534       3367.0571       1430.2816          1.0000          0.5682          2.1090          1.0000
 2027.0000          2.3757       7249.0063       3051.2593          0.0744       3426.7976       1442.4152          1.0000          0.5434          2.1154          1.0000
