~VERSION INFORMATION
 VERS.                          2.0   : CWLS LOG ASCII STANDARD - VERSION 2.0
 WRAP.                          NO    : ONE LINE PER DEPTH STEP
#
~Well Information Section
#MNEM     .UNIT     DATA                DESCRIPTION
#-----    -----     --------            --------------
 STRT     .M        1146.0000           : START DEPTH
 STOP     .M        2901.0000           : END DEPTH
 STEP     .M        0.2500              : INCREMENT DEPTH
 NULL     .         -999.2500           : NULL VALUE
 COMP     .                             :
 WELL     .         DD-1X               : WELL NAME
 EKB      .M        0.0000              : KELLY BUSHING ELEVATION
 EGL      .M        0.0000              : GROUND LEVEL ELEVATION
 FLD      .                              :
 LOC      . X = 451281.4100 Y = 1118162.4900: WELL LOCATION
 PROV     .                              :
 SRVC     .                              :
 PROV     .                              :
 DATE     .                              :
 UWI      .         Unknown              : UNIQUE WELL ID
 API      .                              :
#
~Curve Information Section
#MNEM     .UNIT               Curve #DESCRIPTION
#-----    -----               ----   --------------
 DEPTH    .M                  : 1     Name = Domain Curve - Type = DEPTH
 RHOB     .g/cm3              : 2     Name = Density - Type = Density
 UNKNOWN  .(m/s)*(g/cc)       : 3     Name = P-Impedance_trans - Type = P-Impedance
 DT       .m/s                : 4     Name = P-wave - Type = P-wave
 UNKNOWN  .v/v                : 5     Name = PHIE - Type = Porosity
 UNKNOWN  .(m/s)*(g/cc)       : 6     Name = S-Impedance_trans - Type = S-Impedance
 SDT      .m/s                : 7     Name = S-wave - Type = S-wave
 UNKNOWN  .0.Sw               : 8     Name = SW - Type = Water Saturation
 UNKNOWN  .fraction           : 9     Name = VWCL - Type = Volumetric
 UNKNOWN  .unitless           : 10    Name = VpVs_Ratio - Type = VpVs_Ratio
 UNKNOWN  .md                 : 11    Name = lithology - Type = lithology
~A (ASCII LOG DATA)
# ...
 1416.2500          2.2517       5393.3315       2395.2061          0.1078       2106.4448        935.4828          0.8568          0.5165          2.5604          1.0000
 1416.5000          2.2515       5393.0566       2395.2791          0.0203       2106.6357        935.6438          0.9990          0.6535          2.5600          1.0000
 1416.7500          2.2513       5393.4590       2395.6829          0.0044       2107.6504        936.1821          1.0000          0.7076          2.5590          1.0000
 1417.0000          2.2553       5434.7720       2409.8140          0.0099       2136.4854        947.3292          1.0000          0.6670          2.5438          1.0000
 1417.2500          2.2635       5514.2505       2436.1797          0.0217       2190.5649        967.7795          1.0000          0.6299          2.5174          1.0000
 1417.5000          2.2698       5571.8643       2454.7329          0.0582       2228.4451        981.7601          1.0000          0.5637          2.5003          1.0000
 1417.7500          2.2718       5582.8765       2457.4683          0.0622       2233.3306        983.0665          1.0000          0.5561          2.4998          1.0000
 1418.0000          2.2714       5571.0981       2452.7378          0.0338       2223.2029        978.7895          1.0000          0.5984          2.5059          1.0000
 1418.2500          2.2695       5549.9395       2445.4900          0.0199       2208.2380        973.0234          1.0000          0.6271          2.5133          1.0000
 1418.5000          2.2659       5515.6040       2434.2163          0.0208       2185.3047        964.4449          1.0000          0.6242          2.5240          1.0000
 1418.7500          2.2590       5456.4609       2415.3787          0.0100       2147.4036        950.5755          1.0000          0.6709          2.5410          1.0000
 1419.0000          2.2508       5392.1772       2395.6711          0.0035       2108.4509        936.7521          1.0000          0.7163          2.5575          1.0000
 1419.2500          2.2364       5289.9287       2365.3313          0.0015       2047.1766        915.3708          1.0000          0.7591          2.5840          1.0000
 1419.5000          2.2419       5402.9707       2409.9082          0.0004       2135.1531        952.3282          1.0000          0.8025          2.5313          1.0000
 1419.7500          2.2495       5534.4653       2460.3445          0.0006       2237.2759        994.5760          1.0000          0.7913          2.4739          1.0000
 1420.0000          2.2544       5634.8350       2499.4932          0.0016       2318.7869       1028.5604          1.0000          0.7528          2.4302          1.0000
 1420.2500          2.2626       5748.6812       2540.6731          0.0081       2403.4241       1062.2004          1.0000          0.6866          2.3921          1.0000
 1420.5000          2.2696       5830.8735       2569.0752          0.0211       2462.5532       1084.9976          1.0000          0.6250          2.3678          1.0000
 1420.7500          2.2724       5841.3555       2570.5398          0.0597       2464.9973       1084.7440          0.9470          0.5679          2.3697          1.0000
 1421.0000          2.2731       5818.3984       2559.6475          0.1217       2442.2583       1074.3828          0.8135          0.4991          2.3828          1.0000
 1421.2500          2.2496       5526.4131       2456.5959          0.1173       2228.4832        990.5707          0.8385          0.5100          2.4806          1.0000
 1421.5000          2.2325       5319.0898       2382.4812          0.0336       2074.0134        928.9446          0.9912          0.6060          2.5654          1.0000
 1421.7500          2.2180       5147.6177       2320.7847          0.0190       1947.1764        877.8598          1.0000          0.6367          2.6441          1.0000
 1422.0000          2.2037       5003.1636       2270.3140          0.0372       1848.7379        838.9074          1.0000          0.5949          2.7064          1.0000
 1422.2500          2.2037       5033.9053       2284.2229          0.0102       1876.7035        851.5627          1.0000          0.6859          2.6833          1.0000
 1422.5000          2.2299       5439.3853       2438.7178          0.0010       2162.0498        969.1606          1.0000          0.7818          2.5212          1.0000
 1422.7500          2.2850       6341.1040       2773.6172          0.0003       2751.3691       1203.1128          1.0000          0.8065          2.3105          1.0000
 1423.0000          2.3537       7558.5635       3209.7524          0.0026       3525.0579       1496.5896          1.0000          0.7526          2.1481          1.0000
 1423.2500          2.4119       8658.7813       3588.9448          0.0514       4241.0459       1757.6136          0.8437          0.5871          2.0437          2.0000
 1423.5000          2.4625       9661.0791       3922.9028          0.0918       4921.1216       1998.1442          0.5979          0.4839          1.9638          3.0000
 1423.7500          2.4914      10266.2061       4120.4526          0.1151       5352.7432       2148.3242          0.5311          0.2941          1.9183          3.0000
 1424.0000          2.4976      10478.3232       4195.2769          0.1161       5516.6030       2208.7197          0.5483          0.2628          1.8994          3.0000
 1424.2500          2.4713      10067.8457       4073.5413          0.0799       5274.1865       2133.9521          0.8740          0.4140          1.9090          2.0000
 1424.5000          2.4318       9365.2705       3850.4185          0.0233       4868.8999       2001.7460          0.9953          0.6276          1.9237          2.0000
 1424.7500          2.3857       8527.4229       3574.1921          0.0388       4397.6255       1843.2169          0.8882          0.6106          1.9391          2.0000
 1425.0000          2.3654       8161.4761       3450.2668          0.1737       4197.2993       1774.4069          0.5900          0.3446          1.9445          5.0000
 1425.2500          2.3664       8169.5659       3452.3777          0.2022       4227.8926       1786.6619          0.5605          0.2636          1.9323          5.0000
 1425.5000          2.3792       8437.2549       3546.3096          0.1787       4399.7944       1849.2998          0.5357          0.2958          1.9177          5.0000
 1425.7500          2.3812       8516.2412       3576.4951          0.1942       4458.6528       1872.4637          0.5134          0.2150          1.9101          3.0000
 1426.0000          2.3767       8488.0459       3571.3000          0.2028       4446.0474       1870.6501          0.4519          0.1138          1.9091          3.0000
 1426.2500          2.3703       8374.5527       3533.1404          0.1830       4367.3726       1842.5471          0.4891          0.1691          1.9176          3.0000
 1426.5000          2.3626       8202.6104       3471.8115          0.1643       4247.2915       1797.6838          0.5827          0.2891          1.9314          5.0000
 1426.7500          2.3433       7814.4355       3334.6104          0.1791       3977.5830       1697.2708          0.5231          0.3315          1.9652          5.0000
 1427.0000          2.3187       7331.3540       3161.5820          0.2051       3647.7639       1573.0286          0.4938          0.2904          2.0103          5.0000
 1427.2500          2.3093       7058.3726       3056.5171          0.2241       3459.3269       1498.0083          0.4919          0.2318          2.0404          5.0000
 1427.5000          2.3132       7030.0928       3039.0728          0.2160       3425.5923       1480.8676          0.4889          0.2796          2.0522          5.0000
 1427.7500          2.3126       6979.3296       3017.8979          0.2151       3381.8872       1462.3428          0.4887          0.2954          2.0638          5.0000
