~VERSION INFORMATION
 VERS.                          2.0   : CWLS LOG ASCII STANDARD - VERSION 2.0
 WRAP.                          NO    : ONE LINE PER DEPTH STEP
#
~Well Information Section
#MNEM     .UNIT     DATA                DESCRIPTION
#-----    -----     --------            --------------
 STRT     .M        1146.0000           : START DEPTH
 STOP     .M        2901.0000           : END DEPTH
 STEP     .M        0.2500              : INCREMENT DEPTH
 NULL     .         -999.2500           : NULL VALUE
 COMP     .                             :
 WELL     .         DD-1X               : WELL NAME
 EKB      .M        0.0000              : KELLY BUSHING ELEVATION
 EGL      .M        0.0000              : GROUND LEVEL ELEVATION
 FLD      .                              :
 LOC      . X = 451281.4100 Y = 1118162.4900: WELL LOCATION
 PROV     .                              :
 SRVC     .                              :
 PROV     .                              :
 DATE     .                              :
 UWI      .         Unknown              : UNIQUE WELL ID
 API      .                              :
#
~Curve Information Section
#MNEM     .UNIT               Curve #DESCRIPTION
#-----    -----               ----   --------------
 DEPTH    .M                  : 1     Name = Domain Curve - Type = DEPTH
 RHOB     .g/cm3              : 2     Name = Density - Type = Density
 UNKNOWN  .(m/s)*(g/cc)       : 3     Name = P-Impedance_trans - Type = P-Impedance
 DT       .m/s                : 4     Name = P-wave - Type = P-wave
 UNKNOWN  .v/v                : 5     Name = PHIE - Type = Porosity
 UNKNOWN  .(m/s)*(g/cc)       : 6     Name = S-Impedance_trans - Type = S-Impedance
 SDT      .m/s                : 7     Name = S-wave - Type = S-wave
 UNKNOWN  .0.Sw               : 8     Name = SW - Type = Water Saturation
 UNKNOWN  .fraction           : 9     Name = VWCL - Type = Volumetric
 UNKNOWN  .unitless           : 10    Name = VpVs_Ratio - Type = VpVs_Ratio
 UNKNOWN  .md                 : 11    Name = lithology - Type = lithology
~A (ASCII LOG DATA)
# ...
 1345.7500          2.4126       8493.4043       3520.0032          0.0701       4272.9546       1770.8228          0.9566          0.5363          1.9882          1.0000
 1346.0000          2.3878       7954.3081       3331.0381          0.1460       3934.3420       1647.5557          0.6764          0.4870          2.0221          1.0000
 1346.2500          2.3636       7420.1108       3139.3120          0.0725       3590.0864       1518.8896          0.8688          0.5817          2.0670          1.0000
 1346.5000          2.3514       7140.2568       3036.4812          0.0133       3401.4900       1446.5078          1.0000          0.6484          2.0994          1.0000
 1346.7500          2.3457       6981.0820       2976.1731          0.0161       3288.0383       1401.7556          1.0000          0.6384          2.1232          1.0000
 1347.0000          2.3578       7080.2651       3002.9202          0.0162       3339.9468       1416.5522          1.0000          0.6392          2.1199          1.0000
 1347.2500          2.3683       7173.8999       3029.0671          0.0150       3392.3164       1432.3525          1.0000          0.6475          2.1148          1.0000
 1347.5000          2.3739       7201.9126       3033.8218          0.0384       3399.8960       1432.2140          1.0000          0.5914          2.1183          1.0000
 1347.7500          2.3813       7263.5752       3050.2012          0.0321       3427.3950       1439.2681          1.0000          0.6134          2.1193          1.0000
 1348.0000          2.3919       7375.0854       3083.3955          0.0053       3486.1111       1457.4817          1.0000          0.7170          2.1156          1.0000
 1348.2500          2.3996       7441.0425       3100.9453          0.0010       3516.6633       1465.5186          1.0000          0.7663          2.1159          1.0000
 1348.5000          2.3990       7398.7866       3084.1514          0.0014       3479.8123       1450.5404          1.0000          0.7586          2.1263          1.0000
 1348.7500          2.3914       7263.1304       3037.1172          0.0096       3381.4683       1413.9719          0.9994          0.6875          2.1480          1.0000
 1349.0000          2.3805       7081.3472       2974.6428          0.0177       3250.7273       1365.5076          0.9861          0.6332          2.1786          1.0000
 1349.2500          2.3619       6794.9214       2876.7891          0.0151       3049.6001       1291.0784          0.9975          0.6417          2.2287          1.0000
 1349.5000          2.3366       6425.0171       2749.4609          0.0129       2795.8057       1196.3385          1.0000          0.6552          2.2992          1.0000
 1349.7500          2.3088       6008.4316       2602.3271          0.0021       2511.1667       1087.5891          1.0000          0.7632          2.3933          1.0000
 1350.0000          2.2948       5782.0386       2519.5742          0.0004       2352.2874       1025.0177          1.0000          0.8094          2.4584          1.0000
 1350.2500          2.2945       5750.9663       2506.3699          0.0003       2325.1819       1013.3544          1.0000          0.8176          2.4733          1.0000
 1350.5000          2.3001       5794.8911       2519.3977          0.0002       2348.6831       1021.1174          1.0000          0.8406          2.4673          1.0000
 1350.7500          2.2973       5761.1289       2507.8074          0.0007       2323.8269       1011.5504          1.0000          0.7895          2.4793          1.0000
 1351.0000          2.2858       5652.5352       2472.8608          0.0015       2247.5806        983.2630          1.0000          0.7532          2.5150          1.0000
 1351.2500          2.2757       5559.8267       2443.0872          0.0037       2182.8953        959.1974          1.0000          0.7413          2.5471          1.0000
 1351.5000          2.2693       5486.7202       2417.8118          0.0163       2130.0249        938.6253          1.0000          0.6536          2.5760          1.0000
 1351.7500          2.2621       5372.7617       2375.1030          0.0067       2042.7855        903.0366          1.0000          0.7313          2.6303          1.0000
 1352.0000          2.2546       5242.8994       2325.3792          0.0003       1943.1729        861.8363          1.0000          0.8528          2.6989          1.0000
 1352.2500          2.2473       5121.7144       2279.0676          0.0001       1849.7058        823.0833          1.0000          0.8977          2.7691          1.0000
 1352.5000          2.2490       5103.5830       2269.2080          0.0001       1828.2937        812.9116          1.0000          0.9423          2.7915          1.0000
 1352.7500          2.2576       5157.8892       2284.7104          0.0001       1860.7063        824.2059          1.0000          0.9426          2.7721          1.0000
 1353.0000          2.2615       5197.0073       2297.9929          0.0001       1888.7579        835.1639          1.0000          0.9522          2.7516          1.0000
 1353.2500          2.2588       5212.8765       2307.7813          0.0001       1912.4575        846.6645          1.0000          0.9314          2.7258          1.0000
 1353.5000          2.2524       5248.2925       2330.1052          0.0001       1964.2018        872.0607          1.0000          0.8865          2.6724          1.0000
 1353.7500          2.2507       5369.7295       2385.8286          0.0001       2083.9023        925.8979          1.0000          0.8536          2.5779          1.0000
 1354.0000          2.2506       5545.9409       2464.1790          0.0002       2249.7078        999.5944          1.0000          0.8355          2.4660          1.0000
 1354.2500          2.2477       5698.3750       2535.2542          0.0034       2403.4248       1069.3159          1.0000          0.7665          2.3718          1.0000
 1354.5000          2.2418       5825.4912       2598.5735          0.0661       2541.0281       1133.4872          0.9597          0.5732          2.2930          1.0000
 1354.7500          2.2332       5930.8462       2655.8120          0.1917       2665.4214       1193.5792          0.8899          0.3487          2.2254          4.0000
 1355.0000          2.2248       5974.2729       2685.3010          0.2468       2729.5171       1226.8660          0.9376          0.2178          2.1888          4.0000
 1355.2500          2.2105       5929.5981       2682.4185          0.2649       2724.7339       1232.6105          0.9753          0.1863          2.1762          4.0000
 1355.5000          2.1938       5800.0352       2643.7449          0.2768       2649.8013       1207.8069          0.9322          0.1811          2.1890          4.0000
 1355.7500          2.1823       5694.5542       2609.4409          0.2768       2582.2532       1183.2749          0.9130          0.1937          2.2053          4.0000
 1356.0000          2.1768       5627.3779       2585.2131          0.2989       2534.3794       1164.2915          0.9051          0.1564          2.2204          4.0000
 1356.2500          2.1756       5587.0278       2568.0620          0.3041       2500.4084       1149.3053          0.9419          0.1632          2.2345          4.0000
 1356.5000          2.1745       5548.5107       2551.6541          0.2951       2467.7415       1134.8671          0.9918          0.1619          2.2484          4.0000
 1356.7500          2.1742       5542.5815       2549.3079          0.2899       2463.0613       1132.8838          0.9712          0.1603          2.2503          4.0000
 1357.0000          2.1749       5567.7070       2559.9392          0.2991       2484.0867       1142.1411          0.8302          0.1697          2.2414          4.0000
 1357.2500          2.1771       5629.0771       2585.6194          0.3129       2535.1699       1164.4851          0.7819          0.1561          2.2205          4.0000
