~VERSION INFORMATION
 VERS.                          2.0   : CWLS LOG ASCII STANDARD - VERSION 2.0
 WRAP.                          NO    : ONE LINE PER DEPTH STEP
#
~Well Information Section
#MNEM     .UNIT     DATA                DESCRIPTION
#-----    -----     --------            --------------
 STRT     .M        1146.0000           : START DEPTH
 STOP     .M        2901.0000           : END DEPTH
 STEP     .M        0.2500              : INCREMENT DEPTH
 NULL     .         -999.2500           : NULL VALUE
 COMP     .                             :
 WELL     .         DD-1X               : WELL NAME
 EKB      .M        0.0000              : KELLY BUSHING ELEVATION
 EGL      .M        0.0000              : GROUND LEVEL ELEVATION
 FLD      .                              :
 LOC      . X = 451281.4100 Y = 1118162.4900: WELL LOCATION
 PROV     .                              :
 SRVC     .                              :
 PROV     .                              :
 DATE     .                              :
 UWI      .         Unknown              : UNIQUE WELL ID
 API      .                              :
#
~Curve Information Section
#MNEM     .UNIT               Curve #DESCRIPTION
#-----    -----               ----   --------------
 DEPTH    .M                  : 1     Name = Domain Curve - Type = DEPTH
 RHOB     .g/cm3              : 2     Name = Density - Type = Density
 UNKNOWN  .(m/s)*(g/cc)       : 3     Name = P-Impedance_trans - Type = P-Impedance
 DT       .m/s                : 4     Name = P-wave - Type = P-wave
 UNKNOWN  .v/v                : 5     Name = PHIE - Type = Porosity
 UNKNOWN  .(m/s)*(g/cc)       : 6     Name = S-Impedance_trans - Type = S-Impedance
 SDT      .m/s                : 7     Name = S-wave - Type = S-wave
 UNKNOWN  .0.Sw               : 8     Name = SW - Type = Water Saturation
 UNKNOWN  .fraction           : 9     Name = VWCL - Type = Volumetric
 UNKNOWN  .unitless           : 10    Name = VpVs_Ratio - Type = VpVs_Ratio
 UNKNOWN  .md                 : 11    Name = lithology - Type = lithology
~A (ASCII LOG DATA)
# ...
 1475.0000          2.1549       6004.4648       2786.4668          0.2923       2914.5383       1352.5376          1.0000          0.1133          2.0602          4.0000
 1475.2500          2.1558       6004.7480       2785.4458          0.3065       2912.9534       1351.2430          0.9934          0.0808          2.0614          4.0000
 1475.5000          2.1558       5992.3608       2779.6558          0.3227       2902.1423       1346.2067          0.9597          0.0678          2.0648          4.0000
 1475.7500          2.1571       5997.5586       2780.4197          0.3071       2904.2424       1346.3832          0.9715          0.1057          2.0651          4.0000
 1476.0000          2.1586       6015.1226       2786.6008          0.2891       2916.1611       1350.9578          0.9974          0.1460          2.0627          4.0000
 1476.2500          2.1590       6030.1738       2793.0181          0.3001       2928.2246       1356.2767          0.9891          0.1124          2.0593          4.0000
 1476.5000          2.1591       6035.5332       2795.4495          0.3076       2932.8450       1358.3920          0.9859          0.0860          2.0579          4.0000
 1476.7500          2.1609       6056.2388       2802.6067          0.2945       2946.6807       1363.6161          0.9994          0.1145          2.0553          4.0000
 1477.0000          2.1668       6114.7998       2822.0430          0.2881       2985.0481       1377.6281          1.0000          0.1396          2.0485          4.0000
 1477.2500          2.1730       6175.5151       2841.9358          0.2941       3023.8545       1391.5591          0.9956          0.1253          2.0423          4.0000
 1477.5000          2.1778       6207.8193       2850.4429          0.2996       3041.9395       1396.7668          0.9924          0.1016          2.0407          4.0000
 1477.7500          2.1803       6202.9258       2845.0166          0.2942       3032.1348       1390.7111          0.9997          0.0909          2.0457          4.0000
 1478.0000          2.1827       6187.6206       2834.8804          0.2904       3013.7278       1380.7509          1.0000          0.0819          2.0531          4.0000
 1478.2500          2.1888       6228.5991       2845.6155          0.2861       3036.2249       1387.1344          1.0000          0.0869          2.0515          4.0000
 1478.5000          2.2048       6425.0625       2914.0330          0.2973       3164.2173       1435.0835          1.0000          0.0752          2.0307          4.0000
 1478.7500          2.2296       6785.6519       3043.1533          0.3105       3399.4094       1524.4684          1.0000          0.0647          1.9966          4.0000
 1479.0000          2.2627       7308.7222       3229.8894          0.2971       3738.7188       1652.1833          1.0000          0.0992          1.9552          4.0000
 1479.2500          2.2958       7871.6563       3428.4106          0.2544       4111.1597       1790.5081          1.0000          0.1558          1.9151          4.0000
 1479.5000          2.3155       8232.9600       3555.4338          0.2027       4360.4331       1883.0519          0.9937          0.1771          1.8882          3.0000
 1479.7500          2.3237       8433.1973       3629.2390          0.1670       4509.0234       1940.4651          0.9980          0.1309          1.8703          3.0000
 1480.0000          2.3175       8391.6689       3620.8892          0.1807       4488.6318       1936.7783          0.9989          0.0963          1.8696          3.0000
 1480.2500          2.3012       8183.7261       3556.3000          0.2372       4356.6538       1893.2084          0.9858          0.0695          1.8785          4.0000
 1480.5000          2.2690       7713.1309       3399.0957          0.2972       4056.3545       1787.5527          0.9906          0.0399          1.9017          4.0000
 1480.7500          2.2405       7279.1411       3248.6516          0.3132       3780.1150       1687.0083          0.9883          0.0237          1.9259          4.0000
 1481.0000          2.2180       6918.5132       3119.2515          0.3072       3546.9949       1599.1814          0.9965          0.0300          1.9505          4.0000
 1481.2500          2.2188       6912.4224       3115.2898          0.2952       3541.4250       1596.0410          0.9976          0.0638          1.9519          4.0000
 1481.5000          2.2321       7095.1860       3178.7031          0.2859       3660.9756       1640.1384          0.9912          0.1110          1.9381          4.0000
 1481.7500          2.2462       7307.3647       3253.1545          0.2686       3803.5161       1693.2744          0.9989          0.1513          1.9213          4.0000
 1482.0000          2.2548       7441.1777       3300.1912          0.2311       3894.8450       1727.3755          1.0000          0.2329          1.9105          4.0000
 1482.2500          2.2598       7516.4541       3326.1794          0.2141       3945.8848       1746.1318          1.0000          0.2711          1.9049          4.0000
 1482.5000          2.2584       7487.0396       3315.2349          0.2415       3924.4412       1737.7255          1.0000          0.1757          1.9078          4.0000
 1482.7500          2.2484       7300.9043       3247.0554          0.2698       3791.9785       1686.4575          0.9828          0.0891          1.9255          4.0000
 1483.0000          2.2387       7076.7451       3160.9949          0.2831       3631.0476       1621.8840          0.9484          0.0626          1.9491          4.0000
 1483.2500          2.2424       7011.5557       3126.8616          0.2967       3567.9778       1591.1719          0.9168          0.0332          1.9651          4.0000
 1483.5000          2.2595       7098.0034       3141.3931          0.3126       3600.1323       1593.3326          0.9308          0.0539          1.9716          4.0000
 1483.7500          2.2797       7221.8086       3167.8008          0.2869       3651.9287       1601.9004          0.9708          0.1434          1.9775          4.0000
 1484.0000          2.3074       7426.5977       3218.5920          0.1664       3751.9136       1626.0294          0.9994          0.3614          1.9794          2.0000
 1484.2500          2.3296       7615.6206       3269.0527          0.1056       3855.0422       1654.7965          1.0000          0.4768          1.9755          2.0000
 1484.5000          2.3432       7706.5693       3288.9170          0.1351       3898.8369       1663.8989          1.0000          0.3991          1.9766          3.0000
 1484.7500          2.3418       7625.5923       3256.2788          0.1366       3833.4131       1636.9397          1.0000          0.3983          1.9893          2.0000
 1485.0000          2.3350       7497.8672       3211.0891          0.1468       3746.2585       1604.3955          1.0000          0.3970          2.0015          4.0000
 1485.2500          2.3221       7337.5239       3159.8521          0.2234       3650.2000       1571.9287          1.0000          0.2600          2.0102          4.0000
 1485.5000          2.3054       7146.5166       3099.8022          0.2538       3536.4373       1533.9150          1.0000          0.1895          2.0209          4.0000
 1485.7500          2.2874       6938.6025       3033.3164          0.1890       3411.2480       1491.2760          0.9994          0.3315          2.0341          4.0000
 1486.0000          2.2779       6850.8618       3007.5876          0.1580       3361.9954       1475.9453          0.9625          0.3956          2.0377          4.0000
 1486.2500          2.2765       6879.6382       3021.9851          0.2086       3390.4041       1489.2871          0.9982          0.3043          2.0292          4.0000
 1486.5000          2.2704       6855.6895       3019.5996          0.2328       3384.7073       1490.7981          1.0000          0.2690          2.0255          4.0000
