~VERSION INFORMATION
 VERS.                          2.0   : CWLS LOG ASCII STANDARD - VERSION 2.0
 WRAP.                          NO    : ONE LINE PER DEPTH STEP
#
~Well Information Section
#MNEM     .UNIT     DATA                DESCRIPTION
#-----    -----     --------            --------------
 STRT     .M        1146.0000           : START DEPTH
 STOP     .M        2901.0000           : END DEPTH
 STEP     .M        0.2500              : INCREMENT DEPTH
 NULL     .         -999.2500           : NULL VALUE
 COMP     .                             :
 WELL     .         DD-1X               : WELL NAME
 EKB      .M        0.0000              : KELLY BUSHING ELEVATION
 EGL      .M        0.0000              : GROUND LEVEL ELEVATION
 FLD      .                              :
 LOC      . X = 451281.4100 Y = 1118162.4900: WELL LOCATION
 PROV     .                              :
 SRVC     .                              :
 PROV     .                              :
 DATE     .                              :
 UWI      .         Unknown              : UNIQUE WELL ID
 API      .                              :
#
~Curve Information Section
#MNEM     .UNIT               Curve #DESCRIPTION
#-----    -----               ----   --------------
 DEPTH    .M                  : 1     Name = Domain Curve - Type = DEPTH
 RHOB     .g/cm3              : 2     Name = Density - Type = Density
 UNKNOWN  .(m/s)*(g/cc)       : 3     Name = P-Impedance_trans - Type = P-Impedance
 DT       .m/s                : 4     Name = P-wave - Type = P-wave
 UNKNOWN  .v/v                : 5     Name = PHIE - Type = Porosity
 UNKNOWN  .(m/s)*(g/cc)       : 6     Name = S-Impedance_trans - Type = S-Impedance
 SDT      .m/s                : 7     Name = S-wave - Type = S-wave
 UNKNOWN  .0.Sw               : 8     Name = SW - Type = Water Saturation
 UNKNOWN  .fraction           : 9     Name = VWCL - Type = Volumetric
 UNKNOWN  .unitless           : 10    Name = VpVs_Ratio - Type = VpVs_Ratio
 UNKNOWN  .md                 : 11    Name = lithology - Type = lithology
~A (ASCII LOG DATA)
# ...
 2074.2500          2.5500      10155.4795       3982.5986       -999.2500       5098.4580       1999.3682       -999.2500       -999.2500          1.9921          4.0000
 2074.5000          2.5335      10053.7773       3968.3477       -999.2500       4924.9473       1943.9034       -999.2500       -999.2500          2.0416          4.0000
 2074.7500          2.5009       9900.6553       3958.9238       -999.2500       4799.9717       1919.3239       -999.2500       -999.2500          2.0627          4.0000
 2075.0000          2.4725       9907.0508       4006.9119       -999.2500       4823.1748       1950.7327       -999.2500       -999.2500          2.0541          4.0000
 2075.2500          2.4964      10314.4805       4131.2910       -999.2500       4937.4399       1977.7996       -999.2500       -999.2500          2.0887          4.0000
 2075.5000          2.5326      10585.9189       4179.9253       -999.2500       5125.9800       2023.9636       -999.2500       -999.2500          2.0668          4.0000
 2075.7500          2.5187      10445.5420       4147.2993       -999.2500       5270.4556       2092.5439       -999.2500       -999.2500          1.9819          4.0000
 2076.0000          2.5022      10970.5313       4384.3804       -999.2500       7039.4170       2813.6265       -999.2500       -999.2500          1.6142          4.0000
 2076.2500          2.5037      11946.8076       4771.6860       -999.2500       8043.9009       3212.8174       -999.2500       -999.2500          1.4852          4.0000
 2076.5000          2.4874      12065.6143       4850.6172       -999.2500       7991.5449       3212.8174       -999.2500       -999.2500          1.5098          4.0000
 2076.7500          2.4552      11787.4238       4800.9014       -999.2500       7888.2290       3212.8174       -999.2500       -999.2500          1.4943          4.0000
 2077.0000          2.4553      11759.4883       4789.4409       -999.2500       7888.4131       3212.8174       -999.2500       -999.2500          1.4907          4.0000
 2077.2500          2.4482      11725.5654       -999.2500       -999.2500       7865.6572       3212.8174       -999.2500       -999.2500       -999.2500          4.0000
 2077.5000          2.4094      11539.4912       -999.2500       -999.2500       7740.8364       3212.8174       -999.2500       -999.2500       -999.2500          4.0000
 2077.7500          2.4301      11638.7373       -999.2500       -999.2500       7807.4111       3212.8174       -999.2500       -999.2500       -999.2500          4.0000
 2078.0000          2.4864      11908.6816       -999.2500       -999.2500       7988.4937       3212.8174       -999.2500       -999.2500       -999.2500          4.0000
 2078.2500          2.4900      11925.8477       -999.2500       -999.2500       8000.0088       3212.8174       -999.2500       -999.2500       -999.2500          4.0000
 2078.5000          2.4579      11771.9688       -999.2500       -999.2500       7896.7847       3212.8174       -999.2500       -999.2500       -999.2500          4.0000
 2078.7500          2.4078      11532.1514       -999.2500       -999.2500       7735.9121       3212.8174       -999.2500       -999.2500       -999.2500          4.0000
 2079.0000          2.3462      11236.8545       -999.2500       -999.2500       7537.8242       3212.8174       -999.2500       -999.2500       -999.2500          4.0000
 2079.2500          2.3364      11189.8213       -999.2500       -999.2500       7506.2734       3212.8174       -999.2500       -999.2500       -999.2500          4.0000
 2079.5000          2.3530      11269.6787       -999.2500       -999.2500       7559.8423       3212.8174       -999.2500       -999.2500       -999.2500          4.0000
 2079.7500          2.3800      11399.0186       -999.2500       -999.2500       7646.6055       3212.8174       -999.2500       -999.2500       -999.2500          4.0000
 2080.0000          2.4054      11520.6895       -999.2500       -999.2500       7728.2236       3212.8174       -999.2500       -999.2500       -999.2500          4.0000
 2080.2500          2.4072      11529.2891       -999.2500       -999.2500       7733.9927       3212.8174       -999.2500       -999.2500       -999.2500          4.0000
 2080.5000          2.3917      11454.9756       -999.2500       -999.2500       7684.1416       3212.8174       -999.2500       -999.2500       -999.2500          4.0000
 2080.7500          2.3676      11339.6982       -999.2500       -999.2500       7606.8120       3212.8174       -999.2500       -999.2500       -999.2500          4.0000
 2081.0000          2.3384      11199.6016       -999.2500       -999.2500       7512.8340       3212.8174       -999.2500       -999.2500       -999.2500          4.0000
 2081.2500          2.3434      11223.7686       -999.2500       -999.2500       7529.0459       3212.8174       -999.2500       -999.2500       -999.2500          4.0000
 2081.5000          2.3650      11326.8486       -999.2500       -999.2500       7598.1929       3212.8174       -999.2500       -999.2500       -999.2500          4.0000
 2081.7500          2.3659      11331.4160       -999.2500       -999.2500       7601.2563       3212.8174       -999.2500       -999.2500       -999.2500          4.0000
 2082.0000          2.3744      11372.2861       -999.2500       -999.2500       7628.6733       3212.8174       -999.2500       -999.2500       -999.2500          4.0000
 2082.2500          2.3914      11453.3887       -999.2500       -999.2500       7683.0771       3212.8174       -999.2500       -999.2500       -999.2500          4.0000
 2082.5000          2.3963      11477.0732       -999.2500       -999.2500       7698.9653       3212.8174       -999.2500       -999.2500       -999.2500          4.0000
 2082.7500          2.4601      11782.4395       -999.2500       -999.2500       7903.8086       3212.8174       -999.2500       -999.2500       -999.2500          4.0000
 2083.0000          2.5408      12169.1104       -999.2500       -999.2500       8163.1929       3212.8174       -999.2500       -999.2500       -999.2500          4.0000
 2083.2500          2.5611      12266.0850       -999.2500       -999.2500       8228.2451       3212.8174       -999.2500       -999.2500       -999.2500          4.0000
 2083.5000          2.5499      12212.5596       -999.2500       -999.2500       8192.3398       3212.8174       -999.2500       -999.2500       -999.2500          4.0000
 2083.7500          2.5267      12101.6748       -999.2500       -999.2500       8117.9561       3212.8174       -999.2500       -999.2500       -999.2500          4.0000
 2084.0000          2.4923      11936.7100       -999.2500       -999.2500       8007.2959       3212.8174       -999.2500       -999.2500       -999.2500          4.0000
 2084.2500          2.4864      11908.2656       -999.2500       -999.2500       7988.2144       3212.8174       -999.2500       -999.2500       -999.2500          4.0000
 2084.5000          2.4679      11819.7617       -999.2500       -999.2500       7928.8447       3212.8174       -999.2500       -999.2500       -999.2500          4.0000
 2084.7500          2.4428      11699.4385       -999.2500       -999.2500       7848.1309       3212.8174       -999.2500       -999.2500       -999.2500          4.0000
 2085.0000          2.4356      11665.3945       -999.2500       -999.2500       7825.2935       3212.8174       -999.2500       -999.2500       -999.2500          4.0000
 2085.2500          2.4023      11505.4570       -999.2500       -999.2500       7718.0059       3212.8174       -999.2500       -999.2500       -999.2500          4.0000
 2085.5000          2.3538      11273.4102       -999.2500       -999.2500       7562.3452       3212.8174       -999.2500       -999.2500       -999.2500          4.0000
 2085.7500          2.3323      11170.2041       -999.2500       -999.2500       7493.1138       3212.8174       -999.2500       -999.2500       -999.2500          4.0000
