~VERSION INFORMATION
 VERS.                          2.0   : CWLS LOG ASCII STANDARD - VERSION 2.0
 WRAP.                          NO    : ONE LINE PER DEPTH STEP
#
~Well Information Section
#MNEM     .UNIT     DATA                DESCRIPTION
#-----    -----     --------            --------------
 STRT     .M        1146.0000           : START DEPTH
 STOP     .M        2901.0000           : END DEPTH
 STEP     .M        0.2500              : INCREMENT DEPTH
 NULL     .         -999.2500           : NULL VALUE
 COMP     .                             :
 WELL     .         DD-1X               : WELL NAME
 EKB      .M        0.0000              : KELLY BUSHING ELEVATION
 EGL      .M        0.0000              : GROUND LEVEL ELEVATION
 FLD      .                              :
 LOC      . X = 451281.4100 Y = 1118162.4900: WELL LOCATION
 PROV     .                              :
 SRVC     .                              :
 PROV     .                              :
 DATE     .                              :
 UWI      .         Unknown              : UNIQUE WELL ID
 API      .                              :
#
~Curve Information Section
#MNEM     .UNIT               Curve #DESCRIPTION
#-----    -----               ----   --------------
 DEPTH    .M                  : 1     Name = Domain Curve - Type = DEPTH
 RHOB     .g/cm3              : 2     Name = Density - Type = Density
 UNKNOWN  .(m/s)*(g/cc)       : 3     Name = P-Impedance_trans - Type = P-Impedance
 DT       .m/s                : 4     Name = P-wave - Type = P-wave
 UNKNOWN  .v/v                : 5     Name = PHIE - Type = Porosity
 UNKNOWN  .(m/s)*(g/cc)       : 6     Name = S-Impedance_trans - Type = S-Impedance
 SDT      .m/s                : 7     Name = S-wave - Type = S-wave
 UNKNOWN  .0.Sw               : 8     Name = SW - Type = Water Saturation
 UNKNOWN  .fraction           : 9     Name = VWCL - Type = Volumetric
 UNKNOWN  .unitless           : 10    Name = VpVs_Ratio - Type = VpVs_Ratio
 UNKNOWN  .md                 : 11    Name = lithology - Type = lithology
~A (ASCII LOG DATA)
# ...
 1651.2500          2.2825       7979.5645       3495.9131          0.2724       4258.1494       1865.5251          0.7981          0.0936          1.8740          4.0000
 1651.5000          2.2941       8212.2100       3579.6221          0.2599       4411.1069       1922.7555          0.8245          0.1094          1.8617          4.0000
 1651.7500          2.2998       8323.6348       3619.2605          0.2209       4485.5562       1950.3956          0.9294          0.1692          1.8557          4.0000
 1652.0000          2.3064       8440.7607       3659.6702          0.1809       4563.7393       1978.7032          0.9342          0.2104          1.8495          3.0000
 1652.2500          2.3146       8570.7666       3702.8599          0.1781       4649.4810       2008.7289          0.8561          0.1853          1.8434          4.0000
 1652.5000          2.3220       8687.9834       3741.5479          0.2120       4725.5645       2035.1003          0.8362          0.1481          1.8385          4.0000
 1652.7500          2.3235       8719.0791       3752.5535          0.2391       4746.6968       2042.9030          0.8121          0.0951          1.8369          4.0000
 1653.0000          2.3198       8691.3545       3746.6216          0.2422       4733.7549       2040.6013          0.7993          0.0760          1.8360          4.0000
 1653.2500          2.3198       8735.5479       3765.6782          0.2294       4766.8662       2054.8757          0.8313          0.1054          1.8326          4.0000
 1653.5000          2.3326       9007.0674       3861.2288          0.2046       4942.6533       2118.8408          0.9139          0.1497          1.8224          3.0000
 1653.7500          2.3653       9632.2783       4071.9688          0.2038       5331.9624       2254.0107          0.9461          0.1181          1.8067          4.0000
 1654.0000          2.3955      10217.9658       4265.1846          0.2104       5693.2148       2376.4382          0.9334          0.1118          1.7949          3.0000
 1654.2500          2.4113      10528.5000       4366.2764          0.1703       5888.1777       2441.8872          0.9268          0.1824          1.7881          3.0000
 1654.5000          2.4063      10429.3887       4334.0991          0.1127       5822.8003       2419.7532          0.8580          0.2056          1.7911          3.0000
 1654.7500          2.3975      10234.3857       4268.7095          0.1003       5693.4619       2374.7102          0.7998          0.1670          1.7976          3.0000
 1655.0000          2.3788       9839.0508       4136.0737          0.1809       5431.8540       2283.3875          0.9022          0.0651          1.8114          4.0000
 1655.2500          2.3492       9276.7461       3948.1938          0.2307       5070.4146       2157.8979          0.9551          0.0584          1.8299          4.0000
 1655.5000          2.3040       8443.5137       3664.3940          0.2331       4544.2300       1972.1079          0.9288          0.1206          1.8583          4.0000
 1655.7500          2.2596       7660.4053       3389.5591          0.2557       4046.4087       1790.3665          0.8749          0.1638          1.8937          4.0000
 1656.0000          2.2350       7235.0757       3237.0757          0.2678       3764.8657       1684.4368          0.8327          0.1810          1.9219          4.0000
 1656.2500          2.2193       6959.8833       3136.0439          0.2714       3576.0427       1611.3148          0.8520          0.1702          1.9463          4.0000
 1656.5000          2.2099       6786.9419       3071.1035          0.2848       3455.9143       1563.8009          0.8335          0.1340          1.9639          4.0000
 1656.7500          2.2065       6667.5166       3021.7776          0.2901       3365.1362       1525.1101          0.8358          0.0907          1.9814          4.0000
 1657.0000          2.2130       6658.9692       3008.9858          0.2853       3344.7825       1511.4070          0.8350          0.0903          1.9908          4.0000
 1657.2500          2.2358       6856.6675       3066.5010          0.2765       3452.8577       1544.1946          0.8329          0.1475          1.9859          4.0000
 1657.5000          2.2760       7315.0000       3213.5747          0.2650       3721.4556       1634.8402          0.9224          0.1904          1.9659          4.0000
 1657.7500          2.3177       7805.3413       3367.4622          0.2292       4009.2114       1729.6707          0.9901          0.2288          1.9470          4.0000
 1658.0000          2.3528       8201.8145       3485.8013          0.1319       4241.9297       1802.8162          0.9979          0.4294          1.9336          2.0000
 1658.2500          2.3828       8575.9951       3598.9570          0.0148       4466.9868       1874.5630          0.9758          0.6741          1.9200          2.0000
 1658.5000          2.4213       9182.6895       3792.1492          0.0350       4844.9912       2000.7866          0.9942          0.6092          1.8955          2.0000
 1658.7500          2.4549       9844.2373       4009.5222          0.1043       5255.2773       2140.4060          0.9904          0.4421          1.8735          3.0000
 1659.0000          2.4794      10436.5830       4209.2217          0.1114       5616.8306       2265.3389          0.9499          0.3914          1.8581          3.0000
 1659.2500          2.4983      11010.7207       4407.0996          0.0987       5966.6152       2388.1548          0.9980          0.3741          1.8455          3.0000
 1659.5000          2.5189      11621.6621       4613.5371          0.0711       6337.6084       2515.8621          1.0000          0.3721          1.8339          3.0000
 1659.7500          2.5480      12465.4414       4892.0625          0.0549       6853.0151       2689.4558          0.9878          0.3341          1.8190          3.0000
 1660.0000          2.5700      13118.1357       5103.9805          0.0493       7251.8179       2821.5078          0.8527          0.3100          1.8090          3.0000
 1660.2500          2.5858      13592.2676       5256.4600          0.0416       7534.4209       2913.7419          0.6489          0.3093          1.8040          3.0000
 1660.5000          2.5934      13839.6426       5336.4424          0.0468       7680.4170       2961.5005          0.7560          0.2691          1.8019          3.0000
 1660.7500          2.5842      13673.7070       5291.0215          0.0581       7596.8994       2939.6121          0.9549          0.2278          1.7999          3.0000
 1661.0000          2.5555      13083.1357       5119.3662          0.0597       7271.2227       2845.1929          0.8727          0.2116          1.7993          3.0000
 1661.2500          2.5216      12381.7891       4909.8901          0.0579       6878.3740       2727.5574          0.6517          0.2334          1.8001          3.0000
 1661.5000          2.4947      11841.7373       4746.5840          0.1219       6578.8896       2637.0525          0.9085          0.1972          1.8000          3.0000
 1661.7500          2.4706      11412.7773       4619.2939          0.1703       6352.1558       2571.0278          1.0000          0.1712          1.7967          3.0000
 1662.0000          2.4522      11152.4004       4547.9443          0.1661       6235.4370       2542.8186          1.0000          0.1805          1.7885          3.0000
 1662.2500          2.4437      11131.3721       4555.0879          0.1617       6254.1162       2559.2588          1.0000          0.1254          1.7799          3.0000
 1662.5000          2.4515      11465.4824       4676.7935          0.1601       6477.3892       2642.1238          1.0000          0.0516          1.7702          3.0000
 1662.7500          2.4779      12184.1475       4916.7891          0.1371       6923.8521       2794.0313          0.8955          0.0687          1.7598          3.0000
