~VERSION INFORMATION
 VERS.                          2.0   : CWLS LOG ASCII STANDARD - VERSION 2.0
 WRAP.                          NO    : ONE LINE PER DEPTH STEP
#
~Well Information Section
#MNEM     .UNIT     DATA                DESCRIPTION
#-----    -----     --------            --------------
 STRT     .M        1146.0000           : START DEPTH
 STOP     .M        2901.0000           : END DEPTH
 STEP     .M        0.2500              : INCREMENT DEPTH
 NULL     .         -999.2500           : NULL VALUE
 COMP     .                             :
 WELL     .         DD-1X               : WELL NAME
 EKB      .M        0.0000              : KELLY BUSHING ELEVATION
 EGL      .M        0.0000              : GROUND LEVEL ELEVATION
 FLD      .                              :
 LOC      . X = 451281.4100 Y = 1118162.4900: WELL LOCATION
 PROV     .                              :
 SRVC     .                              :
 PROV     .                              :
 DATE     .                              :
 UWI      .         Unknown              : UNIQUE WELL ID
 API      .                              :
#
~Curve Information Section
#MNEM     .UNIT               Curve #DESCRIPTION
#-----    -----               ----   --------------
 DEPTH    .M                  : 1     Name = Domain Curve - Type = DEPTH
 RHOB     .g/cm3              : 2     Name = Density - Type = Density
 UNKNOWN  .(m/s)*(g/cc)       : 3     Name = P-Impedance_trans - Type = P-Impedance
 DT       .m/s                : 4     Name = P-wave - Type = P-wave
 UNKNOWN  .v/v                : 5     Name = PHIE - Type = Porosity
 UNKNOWN  .(m/s)*(g/cc)       : 6     Name = S-Impedance_trans - Type = S-Impedance
 SDT      .m/s                : 7     Name = S-wave - Type = S-wave
 UNKNOWN  .0.Sw               : 8     Name = SW - Type = Water Saturation
 UNKNOWN  .fraction           : 9     Name = VWCL - Type = Volumetric
 UNKNOWN  .unitless           : 10    Name = VpVs_Ratio - Type = VpVs_Ratio
 UNKNOWN  .md                 : 11    Name = lithology - Type = lithology
~A (ASCII LOG DATA)
# ...
 1287.0000          2.1064       5137.4346       2438.9819       -999.2500       2241.5354       1064.1598          0.9448          0.1355          2.2920          4.0000
 1287.2500          2.0994       5050.0474       2405.4709       -999.2500       2174.9053       1035.9603          0.9728          0.1223          2.3220          4.0000
 1287.5000          2.0957       5010.9746       2391.0857       -999.2500       2145.9539       1023.9843          0.9743          0.1191          2.3351          4.0000
 1287.7500          2.0951       5022.5996       2397.2578       -999.2500       2158.2168       1030.1041          0.9711          0.0943          2.3272          4.0000
 1288.0000          2.0963       5071.8267       2419.3713       -999.2500       2201.3381       1050.0853          0.9750          0.0681          2.3041          4.0000
 1288.2500          2.0964       5113.9199       2439.4260       -999.2500       2240.6216       1068.8147          0.9811          0.0547          2.2824          4.0000
 1288.5000          2.0953       5139.1343       2452.6824       -999.2500       2266.7551       1081.8225          0.9959          0.0599          2.2672          4.0000
 1288.7500          2.0961       5174.9971       2468.8149       -999.2500       2298.7546       1096.6561          0.9953          0.0462          2.2513          4.0000
 1289.0000          2.0996       5229.4731       2490.7148       -999.2500       2342.9351       1115.9006          0.9483          0.0468          2.2321          4.0000
 1289.2500          2.1032       5266.4468       2503.9585       -999.2500       2369.6450       1126.6593          0.9105          0.0846          2.2225          4.0000
 1289.5000          2.1038       5253.4385       2497.1294       -999.2500       2356.4990       1120.1196          0.9612          0.0673          2.2294          4.0000
 1289.7500          2.1019       5202.8403       2475.3342          0.3312       2313.5623       1100.7120          0.9712          0.0651          2.2489          4.0000
 1290.0000          2.1005       5158.2939       2455.7598          0.3250       2274.7947       1082.9838          0.9733          0.0881          2.2676          4.0000
 1290.2500          2.1012       5151.4404       2451.6082          0.3329       2266.7944       1078.7841          0.9400          0.0949          2.2726          4.0000
 1290.5000          2.1026       5157.6655       2453.0430          0.3382       2269.8066       1079.5452          0.9277          0.0774          2.2723          4.0000
 1290.7500          2.1012       5144.1919       2448.2058          0.3382       2260.1116       1075.6238          0.9240          0.0731          2.2761          4.0000
 1291.0000          2.0966       5103.0449       2433.9150          0.3392       2231.2419       1064.1959          0.9073          0.0594          2.2871          4.0000
 1291.2500          2.0909       5055.4639       2417.8911          0.3336       2198.7090       1051.5826          0.9545          0.0514          2.2993          4.0000
 1291.5000          2.0887       5046.5620       2416.0715          0.3354       2194.9585       1050.8495          0.9738          0.0466          2.2992          4.0000
 1291.7500          2.0890       5058.4263       2421.5127          0.3451       2205.5537       1055.8175          0.9450          0.0548          2.2935          4.0000
 1292.0000          2.0930       5116.1836       2444.3882          0.3527       2249.5215       1074.7615          0.9093          0.0646          2.2744          4.0000
 1292.2500          2.1082       5320.2271       2523.1606          0.3520       2392.8547       1134.7157          0.9262          0.0558          2.2251          4.0000
 1292.5000          2.1521       5917.5063       2749.0793          0.3456       2789.0247       1295.5609          0.9847          0.0509          2.1232          4.0000
 1292.7500          2.2254       6991.3989       3139.8132          0.3317       3472.9348       1559.3733          0.9999          0.0573          2.0155          4.0000
 1293.0000          2.2972       8084.5313       3517.8057          0.2756       4155.5571       1807.9803          1.0000          0.1469          1.9467          4.0000
 1293.2500          2.3744       9299.8857       3915.4092          0.1568       4912.5078       2068.0784          1.0000          0.3318          1.8939          2.0000
 1293.5000          2.4410      10366.0039       4245.5693          0.0587       5574.3584       2282.9524          1.0000          0.4310          1.8600          2.0000
 1293.7500          2.5009      11316.4180       4524.2886          0.0327       6157.2012       2461.5901          1.0000          0.4404          1.8381          2.0000
 1294.0000          2.5322      11742.1240       4637.0864          0.0113       6397.3643       2526.3901          1.0000          0.5489          1.8355          2.0000
 1294.2500          2.5307      11569.5850       4571.5229          0.0067       6275.6221       2479.6936          1.0000          0.6233          1.8436          2.0000
 1294.5000          2.5053      10948.1494       4369.5552          0.0179       5895.1489       2352.7932          1.0000          0.6110          1.8573          2.0000
 1294.7500          2.4639      10096.9482       4097.6040          0.0219       5383.8916       2184.8877          1.0000          0.6158          1.8756          2.0000
 1295.0000          2.4173       9245.0098       3823.8130          0.0380       4874.0054       2015.8726          0.9823          0.5832          1.8971          2.0000
 1295.2500          2.3795       8619.9678       3622.2576          0.1111       4504.2061       1892.7135          0.9358          0.4041          1.9139          3.0000
 1295.5000          2.3370       7996.2910       3421.4976          0.1919       4139.0688       1771.0386          1.0000          0.2544          1.9320          4.0000
 1295.7500          2.3074       7617.4243       3301.0012          0.2145       3918.2942       1697.9604          0.8914          0.2458          1.9442          4.0000
 1296.0000          2.2795       7281.2910       3194.1572          0.2190       3717.8484       1630.9368          0.8219          0.2332          1.9585          4.0000
 1296.2500          2.2519       6964.2134       3092.5737          0.2203       3518.8955       1562.6077          0.9137          0.2346          1.9792          4.0000
 1296.5000          2.2338       6755.9419       3024.3164          0.2189       3381.6851       1513.7964          0.9855          0.2596          1.9980          4.0000
 1296.7500          2.2117       6477.8369       2928.8667          0.2402       3189.7598       1442.1860          0.9968          0.2264          2.0310          4.0000
 1297.0000          2.1874       6160.4497       2816.1082          0.2763       2967.6648       1356.5413          0.9320          0.1385          2.0765          4.0000
 1297.2500          2.1638       5852.9219       2704.7996          0.2973       2752.2493       1271.8528          0.8677          0.1222          2.1271          4.0000
 1297.5000          2.1389       5530.0332       2585.3887          0.3163       2524.9106       1180.4025          0.8461          0.1253          2.1907          4.0000
 1297.7500          2.1228       5322.1455       2507.0430          0.3264       2374.7683       1118.6356          0.8561          0.1205          2.2415          4.0000
 1298.0000          2.1120       5183.5767       2454.2832          0.3216       2272.2878       1075.8605          0.8472          0.1691          2.2813          4.0000
 1298.2500          2.1079       5135.3276       2436.2605          0.3230       2236.9651       1061.2427          0.8241          0.1853          2.2957          4.0000
 1298.5000          2.1083       5146.3843       2440.9810          0.3312       2246.2068       1065.3976          0.8288          0.1413          2.2912          4.0000
