~VERSION INFORMATION
 VERS.                          2.0   : CWLS LOG ASCII STANDARD - VERSION 2.0
 WRAP.                          NO    : ONE LINE PER DEPTH STEP
#
~Well Information Section
#MNEM     .UNIT     DATA                DESCRIPTION
#-----    -----     --------            --------------
 STRT     .M        1146.0000           : START DEPTH
 STOP     .M        2901.0000           : END DEPTH
 STEP     .M        0.2500              : INCREMENT DEPTH
 NULL     .         -999.2500           : NULL VALUE
 COMP     .                             :
 WELL     .         DD-1X               : WELL NAME
 EKB      .M        0.0000              : KELLY BUSHING ELEVATION
 EGL      .M        0.0000              : GROUND LEVEL ELEVATION
 FLD      .                              :
 LOC      . X = 451281.4100 Y = 1118162.4900: WELL LOCATION
 PROV     .                              :
 SRVC     .                              :
 PROV     .                              :
 DATE     .                              :
 UWI      .         Unknown              : UNIQUE WELL ID
 API      .                              :
#
~Curve Information Section
#MNEM     .UNIT               Curve #DESCRIPTION
#-----    -----               ----   --------------
 DEPTH    .M                  : 1     Name = Domain Curve - Type = DEPTH
 RHOB     .g/cm3              : 2     Name = Density - Type = Density
 UNKNOWN  .(m/s)*(g/cc)       : 3     Name = P-Impedance_trans - Type = P-Impedance
 DT       .m/s                : 4     Name = P-wave - Type = P-wave
 UNKNOWN  .v/v                : 5     Name = PHIE - Type = Porosity
 UNKNOWN  .(m/s)*(g/cc)       : 6     Name = S-Impedance_trans - Type = S-Impedance
 SDT      .m/s                : 7     Name = S-wave - Type = S-wave
 UNKNOWN  .0.Sw               : 8     Name = SW - Type = Water Saturation
 UNKNOWN  .fraction           : 9     Name = VWCL - Type = Volumetric
 UNKNOWN  .unitless           : 10    Name = VpVs_Ratio - Type = VpVs_Ratio
 UNKNOWN  .md                 : 11    Name = lithology - Type = lithology
~A (ASCII LOG DATA)
# ...
 1592.5000          2.3222       8808.6934       3793.2075          0.1830       4818.5010       2074.9329          1.0000          0.2056          1.8282          4.0000
 1592.7500          2.3428       9226.0967       3937.8882          0.1664       5088.6294       2171.9070          1.0000          0.2002          1.8132          4.0000
 1593.0000          2.3735       9859.1191       4153.3760          0.1506       5483.4043       2309.9744          1.0000          0.2028          1.7981          4.0000
 1593.2500          2.4134      10678.6328       4424.0923          0.1362       5968.2725       2472.6045          1.0000          0.1995          1.7893          3.0000
 1593.5000          2.4556      11513.4600       4688.1025          0.1174       6442.9897       2623.4844          1.0000          0.2633          1.7870          3.0000
 1593.7500          2.4940      12197.8516       4890.7827          0.0987       6824.5400       2736.3303          1.0000          0.2986          1.7874          3.0000
 1594.0000          2.5124      12365.1582       4921.7471          0.0921       6899.5215       2746.2461          0.9293          0.2734          1.7922          3.0000
 1594.2500          2.5096      12107.4424       4824.4053          0.0916       6703.8535       2671.2437          0.5597          0.2117          1.8062          3.0000
 1594.5000          2.4902      11383.8037       4571.3896          0.0841       6203.1426       2490.9739          0.7644          0.1789          1.8353          3.0000
 1594.7500          2.4742      10750.5703       4344.8716          0.0694       5783.2505       2337.2854          0.9836          0.2811          1.8592          3.0000
 1595.0000          2.4620      10212.8105       4148.0820          0.0648       5437.3975       2208.4739          1.0000          0.4721          1.8783          1.0000
 1595.2500          2.4570       9924.8145       4039.4207          0.0678       5249.9556       2136.7427          1.0000          0.5861          1.8905          2.0000
 1595.5000          2.4637      10018.9365       4066.4331          0.0580       5289.1411       2146.7256          1.0000          0.6737          1.8943          2.0000
 1595.7500          2.4924      10635.8867       4267.1270          0.0382       5641.5796       2263.3862          0.9096          0.6987          1.8854          2.0000
 1596.0000          2.5277      11444.1982       4526.9375          0.0457       6140.8442       2429.0481          0.7860          0.5989          1.8639          2.0000
 1596.2500          2.5455      11910.8545       4679.2290          0.0593       6451.0254       2534.3127          0.7660          0.5232          1.8464          2.0000
 1596.5000          2.5305      11776.0791       4653.5620          0.0684       6394.0625       2526.7441          0.6927          0.4831          1.8417          2.0000
 1596.7500          2.5001      11258.5400       4502.7275          0.0764       6104.3618       2441.3574          0.7796          0.3918          1.8444          3.0000
 1597.0000          2.4602      10509.0518       4271.3047          0.0847       5676.1387       2306.9939          0.9363          0.2485          1.8515          3.0000
 1597.2500          2.4180       9689.6768       4006.8445          0.1083       5200.0845       2150.2913          1.0000          0.2146          1.8635          4.0000
 1597.5000          2.3855       9039.0225       3788.9915          0.1455       4822.8374       2021.6328          1.0000          0.2517          1.8743          4.0000
 1597.7500          2.3732       8769.0469       3694.9597          0.1629       4662.8633       1964.7618          1.0000          0.2543          1.8806          4.0000
 1598.0000          2.3806       8880.0723       3730.0974          0.1552       4726.2021       1985.2476          1.0000          0.2832          1.8789          4.0000
 1598.2500          2.4029       9289.1436       3865.5933          0.1304       4972.3037       2069.1577          1.0000          0.3618          1.8683          3.0000
 1598.5000          2.4251       9728.3389       4011.3359          0.1115       5244.1392       2162.3264          1.0000          0.3854          1.8552          3.0000
 1598.7500          2.4399      10060.5234       4123.3247          0.1072       5460.8120       2238.1206          1.0000          0.3858          1.8423          2.0000
 1599.0000          2.4410      10162.6689       4163.3062          0.1102       5537.3359       2268.4622          1.0000          0.4481          1.8353          2.0000
 1599.2500          2.4371      10197.9453       4184.4878          0.1151       5575.6118       2287.8225          1.0000          0.4446          1.8290          3.0000
 1599.5000          2.4318      10224.3184       4204.4673          0.1205       5610.6973       2307.2461          1.0000          0.3157          1.8223          4.0000
 1599.7500          2.4204      10117.4688       4180.0352          0.1266       5563.4966       2298.5625          1.0000          0.2206          1.8185          4.0000
 1600.0000          2.3875       9645.0322       4039.7134          0.1405       5295.5752       2217.9873          1.0000          0.3251          1.8214          2.0000
 1600.2500          2.3651       9344.3193       3950.8337          0.1472       5124.3911       2166.6228          1.0000          0.3471          1.8235          3.0000
 1600.5000          2.3595       9329.7539       3954.1987          0.1702       5127.2549       2173.0674          1.0000          0.1860          1.8196          4.0000
 1600.7500          2.3599       9395.3213       3981.1987          0.2340       5175.8276       2193.2175          1.0000          0.1750          1.8152          4.0000
 1601.0000          2.3459       9180.6270       3913.3584          0.2044       5044.8354       2150.4087          1.0000          0.2750          1.8199          4.0000
 1601.2500          2.3196       8743.1621       3769.1948          0.1708       4772.0479       2057.2273          1.0000          0.2411          1.8322          3.0000
 1601.5000          2.3076       8546.0938       3703.4092          0.2058       4647.4624       2013.9551          1.0000          0.1255          1.8389          4.0000
 1601.7500          2.3062       8515.5371       3692.4580          0.2503       4627.1836       2006.4124          1.0000          0.0778          1.8403          4.0000
 1602.0000          2.3027       8441.7197       3666.0042          0.2438       4578.0479       1988.1151          1.0000          0.1339          1.8440          4.0000
 1602.2500          2.2941       8291.5508       3614.3103          0.2280       4482.1484       1953.7792          1.0000          0.1820          1.8499          4.0000
 1602.5000          2.2935       8286.2041       3612.9592          0.2191       4479.6357       1953.2135          1.0000          0.1905          1.8498          4.0000
 1602.7500          2.3014       8430.0381       3662.9590          0.2219       4573.8555       1987.3947          1.0000          0.1603          1.8431          4.0000
 1603.0000          2.3062       8520.1133       3694.4839          0.2393       4633.2642       2009.0715          1.0000          0.0816          1.8389          4.0000
 1603.2500          2.3030       8464.6836       3675.4893          0.2108       4595.9761       1995.6372          1.0000          0.1407          1.8418          4.0000
 1603.5000          2.2919       8277.6768       3611.7649          0.1975       4471.6211       1951.0806          1.0000          0.1774          1.8512          4.0000
 1603.7500          2.2786       8068.3867       3540.8203          0.2200       4333.4194       1901.7135          1.0000          0.2111          1.8620          4.0000
 1604.0000          2.2645       7845.5347       3464.5059          0.2485       4186.0508       1848.5083          1.0000          0.2047          1.8743          4.0000
