~VERSION INFORMATION
 VERS.                          2.0   : CWLS LOG ASCII STANDARD - VERSION 2.0
 WRAP.                          NO    : ONE LINE PER DEPTH STEP
#
~Well Information Section
#MNEM     .UNIT     DATA                DESCRIPTION
#-----    -----     --------            --------------
 STRT     .M        1146.0000           : START DEPTH
 STOP     .M        2901.0000           : END DEPTH
 STEP     .M        0.2500              : INCREMENT DEPTH
 NULL     .         -999.2500           : NULL VALUE
 COMP     .                             :
 WELL     .         DD-1X               : WELL NAME
 EKB      .M        0.0000              : KELLY BUSHING ELEVATION
 EGL      .M        0.0000              : GROUND LEVEL ELEVATION
 FLD      .                              :
 LOC      . X = 451281.4100 Y = 1118162.4900: WELL LOCATION
 PROV     .                              :
 SRVC     .                              :
 PROV     .                              :
 DATE     .                              :
 UWI      .         Unknown              : UNIQUE WELL ID
 API      .                              :
#
~Curve Information Section
#MNEM     .UNIT               Curve #DESCRIPTION
#-----    -----               ----   --------------
 DEPTH    .M                  : 1     Name = Domain Curve - Type = DEPTH
 RHOB     .g/cm3              : 2     Name = Density - Type = Density
 UNKNOWN  .(m/s)*(g/cc)       : 3     Name = P-Impedance_trans - Type = P-Impedance
 DT       .m/s                : 4     Name = P-wave - Type = P-wave
 UNKNOWN  .v/v                : 5     Name = PHIE - Type = Porosity
 UNKNOWN  .(m/s)*(g/cc)       : 6     Name = S-Impedance_trans - Type = S-Impedance
 SDT      .m/s                : 7     Name = S-wave - Type = S-wave
 UNKNOWN  .0.Sw               : 8     Name = SW - Type = Water Saturation
 UNKNOWN  .fraction           : 9     Name = VWCL - Type = Volumetric
 UNKNOWN  .unitless           : 10    Name = VpVs_Ratio - Type = VpVs_Ratio
 UNKNOWN  .md                 : 11    Name = lithology - Type = lithology
~A (ASCII LOG DATA)
# ...
 1898.0000          2.3598       8263.3447       3501.6206          0.1956       4558.6704       1931.7483          0.8583          0.1401          1.8127          3.0000
 1898.2500          2.3745       8586.7764       3616.1685          0.1747       4770.7065       2009.0911          0.8265          0.1010          1.7999          3.0000
 1898.5000          2.3889       8875.7598       3715.3254          0.1425       4940.5195       2068.0757          0.8946          0.1449          1.7965          3.0000
 1898.7500          2.4051       9196.4932       3823.7129          0.1080       5096.4707       2119.0076          0.8773          0.1908          1.8045          3.0000
 1899.0000          2.4160       9375.3164       3880.5667          0.0976       5201.8672       2153.1206          0.9980          0.2193          1.8023          3.0000
 1899.2500          2.4226       9500.7070       3921.6570          0.0976       5257.6489       2170.2319          0.9493          0.3009          1.8070          3.0000
 1899.5000          2.4274       9615.8613       3961.4185          0.1203       5301.9277       2184.2195          0.8574          0.2781          1.8137          3.0000
 1899.7500          2.4275       9622.5488       3963.9153          0.1460       5306.1860       2185.8315          0.8531          0.1726          1.8135          3.0000
 1900.0000          2.4260       9577.0850       3947.6641          0.1390       5275.8252       2174.6892          0.8710          0.1383          1.8153          3.0000
 1900.2500          2.4273       9571.6289       3943.3689          0.1151       5268.1621       2170.4048          0.9725          0.1380          1.8169          3.0000
 1900.5000          2.4351       9693.1797       3980.5295          0.1081       5304.0186       2178.1177          0.9309          0.1674          1.8275          3.0000
 1900.7500          2.4438       9838.5977       4025.9771          0.1174       5334.5493       2182.9189          0.9098          0.1945          1.8443          3.0000
 1901.0000          2.4462       9828.7354       4017.9609          0.1049       5304.7856       2168.5823          0.9461          0.2511          1.8528          3.0000
 1901.2500          2.4439       9713.0127       3974.4102          0.0915       5222.8979       2137.1260          0.9622          0.2966          1.8597          3.0000
 1901.5000          2.4426       9658.7969       3954.2861          0.0893       5184.5547       2122.5432          0.9478          0.3265          1.8630          3.0000
 1901.7500          2.4440       9687.0332       3963.5881          0.0927       5202.0039       2128.4744          0.9153          0.3634          1.8622          3.0000
 1902.0000          2.4444       9732.4883       3981.5610          0.0969       5236.4858       2142.2466          0.9377          0.3474          1.8586          3.0000
 1902.2500          2.4427       9760.2695       3995.7151          0.0934       5263.7085       2154.8875          0.9647          0.3142          1.8543          3.0000
 1902.5000          2.4376       9763.3457       4005.2415          0.0929       5281.4316       2166.6165          0.9430          0.2876          1.8486          3.0000
 1902.7500          2.4323       9754.0010       4010.1582          0.0935       5290.0083       2174.8809          0.9301          0.3123          1.8439          3.0000
 1903.0000          2.4243       9700.3242       4001.1970          0.1024       5284.5444       2179.7791          0.8661          0.2936          1.8356          3.0000
 1903.2500          2.4137       9569.6094       3964.6604          0.1355       5250.6997       2175.3528          0.9371          0.1836          1.8225          3.0000
 1903.5000          2.4037       9461.0410       3936.0518          0.1550       5195.6846       2161.5471          0.9543          0.1244          1.8209          3.0000
 1903.7500          2.3949       9359.1826       3907.9277          0.1571       5142.0215       2147.0520          0.8827          0.1114          1.8201          3.0000
 1904.0000          2.3896       9300.2715       3891.9871          0.1571       5111.1777       2138.9309          0.8528          0.1505          1.8196          3.0000
 1904.2500          2.3867       9273.5176       3885.5022          0.1515       5098.7358       2136.3145          0.8798          0.1814          1.8188          3.0000
 1904.5000          2.3846       9230.1377       3870.7275          0.1432       5097.7876       2137.7976          0.9087          0.1939          1.8106          3.0000
 1904.7500          2.3850       9225.4658       3868.0535          0.1481       5114.9966       2144.6155          0.9402          0.1543          1.8036          3.0000
 1905.0000          2.3872       9243.2617       3871.9512          0.1607       5152.9814       2158.5532          0.9500          0.1146          1.7938          3.0000
 1905.2500          2.3894       9238.2549       3866.3215          0.1561       5200.8408       2176.6145          0.8551          0.1346          1.7763          3.0000
 1905.5000          2.3842       9081.1348       3808.8391          0.1436       5149.9819       2160.0339          0.8323          0.1726          1.7633          3.0000
 1905.7500          2.3684       8718.8926       3681.2483          0.1345       4977.1880       2101.4534          0.8142          0.1882          1.7517          3.0000
 1906.0000          2.3469       8224.6895       3504.4197          0.1295       4714.9619       2008.9755          0.8083          0.2039          1.7444          3.0000
 1906.2500          2.3446       8135.0405       3469.6284          0.1542       4610.4834       1966.3928          0.7104          0.2063          1.7645          5.0000
 1906.5000          2.3488       8154.7759       3471.9216          0.2203       4563.0967       1942.7552          0.5370          0.1978          1.7871          5.0000
 1906.7500          2.3512       8141.5698       3462.6587          0.1889       4492.5767       1910.7208          0.6272          0.3668          1.8123          1.0000
 1907.0000          2.3517       8120.7144       3453.1011          0.1010       4430.7188       1884.0387          0.7579          0.4954          1.8328          2.0000
 1907.2500          2.3600       8282.9326       3509.6880          0.0848       4476.8442       1896.9521          0.8748          0.3987          1.8502          3.0000
 1907.5000          2.3755       8597.9395       3619.2795          0.1247       4664.8740       1963.6528          0.8604          0.2585          1.8432          3.0000
 1907.7500          2.3854       8849.9756       3709.9895          0.1537       4851.4258       2033.7618          0.9278          0.1597          1.8243          3.0000
 1908.0000          2.3825       8870.6133       3723.2056          0.1628       4910.2280       2060.9399          0.8842          0.1033          1.8066          3.0000
 1908.2500          2.3776       8866.4531       3729.1904          0.1653       4919.3433       2069.0547          0.7898          0.1223          1.8024          3.0000
 1908.5000          2.3763       8908.9014       3749.0435          0.1624       4956.5151       2085.8000          0.7516          0.1603          1.7974          3.0000
 1908.7500          2.3788       8997.7852       3782.5042          0.1585       5019.7324       2110.2029          0.8624          0.1494          1.7925          3.0000
 1909.0000          2.3861       9148.8467       3834.2632          0.1513       5082.8340       2130.2148          0.9175          0.1465          1.7999          3.0000
 1909.2500          2.3961       9321.4756       3890.2510          0.1451       5133.6421       2142.5012          0.9141          0.1605          1.8157          3.0000
 1909.5000          2.4100       9528.0029       3953.5610          0.1294       5192.0132       2154.3887          0.9254          0.2115          1.8351          3.0000
