~VERSION INFORMATION
 VERS.                          2.0   : CWLS LOG ASCII STANDARD - VERSION 2.0
 WRAP.                          NO    : ONE LINE PER DEPTH STEP
#
~Well Information Section
#MNEM     .UNIT     DATA                DESCRIPTION
#-----    -----     --------            --------------
 STRT     .M        1146.0000           : START DEPTH
 STOP     .M        2901.0000           : END DEPTH
 STEP     .M        0.2500              : INCREMENT DEPTH
 NULL     .         -999.2500           : NULL VALUE
 COMP     .                             :
 WELL     .         DD-1X               : WELL NAME
 EKB      .M        0.0000              : KELLY BUSHING ELEVATION
 EGL      .M        0.0000              : GROUND LEVEL ELEVATION
 FLD      .                              :
 LOC      . X = 451281.4100 Y = 1118162.4900: WELL LOCATION
 PROV     .                              :
 SRVC     .                              :
 PROV     .                              :
 DATE     .                              :
 UWI      .         Unknown              : UNIQUE WELL ID
 API      .                              :
#
~Curve Information Section
#MNEM     .UNIT               Curve #DESCRIPTION
#-----    -----               ----   --------------
 DEPTH    .M                  : 1     Name = Domain Curve - Type = DEPTH
 RHOB     .g/cm3              : 2     Name = Density - Type = Density
 UNKNOWN  .(m/s)*(g/cc)       : 3     Name = P-Impedance_trans - Type = P-Impedance
 DT       .m/s                : 4     Name = P-wave - Type = P-wave
 UNKNOWN  .v/v                : 5     Name = PHIE - Type = Porosity
 UNKNOWN  .(m/s)*(g/cc)       : 6     Name = S-Impedance_trans - Type = S-Impedance
 SDT      .m/s                : 7     Name = S-wave - Type = S-wave
 UNKNOWN  .0.Sw               : 8     Name = SW - Type = Water Saturation
 UNKNOWN  .fraction           : 9     Name = VWCL - Type = Volumetric
 UNKNOWN  .unitless           : 10    Name = VpVs_Ratio - Type = VpVs_Ratio
 UNKNOWN  .md                 : 11    Name = lithology - Type = lithology
~A (ASCII LOG DATA)
# ...
 1956.7500          2.2757       7182.7407       3156.2131          0.1768       4073.9529       1790.1678          0.8094          0.2512          1.7631          4.0000
 1957.0000          2.2826       7182.0059       3146.3643          0.1752       4035.3096       1767.8322          0.8292          0.2551          1.7798          4.0000
 1957.2500          2.2852       7112.4907       3112.4114          0.1763       3973.1228       1738.6305          0.7987          0.2413          1.7902          4.0000
 1957.5000          2.2767       6865.9595       3015.7092          0.1692       3800.7124       1669.3641          0.8543          0.2761          1.8066          4.0000
 1957.7500          2.2628       6591.1235       2912.6948          0.1571       3625.1594       1601.9902          0.7518          0.3023          1.8182          4.0000
 1958.0000          2.2478       6321.9985       2812.4998          0.1930       3459.4238       1539.0093          0.8795          0.1744          1.8275          4.0000
 1958.2500          2.2332       6086.6719       2725.3901          0.2226       3323.9614       1488.3567          0.9096          0.0824          1.8311          4.0000
 1958.5000          2.2170       5805.2324       2618.4504          0.2181       3192.7832       1440.1101          0.7982          0.0914          1.8182          4.0000
 1958.7500          2.2047       5600.4634       2540.2495          0.2119       3058.3875       1387.2211          0.7540          0.1463          1.8312          4.0000
 1959.0000          2.2120       5698.0073       2575.9238          0.2209       3054.2205       1380.7631          0.7914          0.1174          1.8655          4.0000
 1959.2500          2.2309       5934.6284       2660.1509          0.2255       3126.9592       1401.6504          0.7885          0.1097          1.8978          4.0000
 1959.5000          2.2551       6218.8999       2757.6353          0.2158       3209.5632       1423.2462          0.8117          0.1808          1.9375          4.0000
 1959.7500          2.2746       6438.5527       2830.5520          0.1896       3263.7639       1434.8652          0.8086          0.2903          1.9726          4.0000
 1960.0000          2.2990       6730.9219       2927.6816          0.1115       3350.2073       1457.2338          0.8951          0.4818          2.0090          1.0000
 1960.2500          2.3223       7054.9038       3037.7859          0.0131       3469.5798       1493.9913          1.0000          0.6747          2.0333          1.0000
 1960.5000          2.3385       7309.3193       3125.5986          0.0010       3589.9058       1535.1046          1.0000          0.7784          2.0361          1.0000
 1960.7500          2.3408       7355.9048       3142.4602          0.0001       3667.2834       1566.6783          1.0000          0.8519          2.0059          1.0000
 1961.0000          2.3317       7275.0029       3120.0154          0.0007       3705.4321       1589.1641          1.0000          0.7974          1.9634          1.0000
 1961.2500          2.3130       7112.5220       3075.0063          0.0171       3698.4067       1599.0074          0.9954          0.6842          1.9231          1.0000
 1961.5000          2.2886       6910.8218       3019.5781          0.1421       3672.0906       1604.4976          0.8965          0.3506          1.8820          4.0000
 1961.7500          2.2642       6732.8931       2973.5891          0.1867       3661.6165       1617.2004          0.8264          0.2037          1.8388          4.0000
 1962.0000          2.2513       6676.5757       2965.7041          0.2119       3702.0879       1644.4695          0.8927          0.1230          1.8036          4.0000
 1962.2500          2.2458       6678.2500       2973.6086          0.2255       3787.8770       1686.6191          0.8517          0.1170          1.7631          4.0000
 1962.5000          2.2504       6798.1968       3020.8159          0.2320       3820.0540       1697.4802          0.8558          0.1141          1.7796          4.0000
 1962.7500          2.2612       6940.3218       3069.3506          0.2028       3834.9158       1695.9995          0.8234          0.1820          1.8098          3.0000
 1963.0000          2.2828       7127.6396       3122.3447          0.1683       3848.6182       1685.9725          0.8684          0.1064          1.8520          4.0000
 1963.2500          2.3024       7239.9463       3144.4971          0.1629       3824.3521       1661.0750          0.9919          0.1477          1.8933          3.0000
 1963.5000          2.3222       7261.4595       3127.0420          0.1352       3708.9702       1597.2388          0.8940          0.3992          1.9581          1.0000
 1963.7500          2.3319       7130.7998       3057.9802          0.0158       3500.0076       1500.9775          0.9861          0.7244          2.0383          1.0000
 1964.0000          2.3378       6981.1499       2986.2751          0.0001       3308.7354       1415.3617          1.0000          0.9245          2.1102          1.0000
 1964.2500          2.3447       6876.4692       2932.8293          0.0001       3200.2317       1364.9116          1.0000          0.9996          2.1488          1.0000
 1964.5000          2.3491       6857.0249       2919.0295          0.0001       3170.6707       1349.7523          1.0000          0.9845          2.1626          1.0000
 1964.7500          2.3443       6751.7070       2880.0547          0.0001       3135.1333       1337.3567          0.9999          0.9617          2.1535          1.0000
 1965.0000          2.3270       6527.2056       2804.9194          0.0001       3092.6389       1329.0260          0.9893          0.9716          2.1105          1.0000
 1965.2500          2.3033       6309.8052       2739.3923          0.0076       3069.5210       1332.6792          0.9869          0.8505          2.0556          1.0000
 1965.5000          2.2780       6108.2261       2681.2703          0.1130       3055.8103       1341.4417          0.8018          0.5109          1.9988          4.0000
 1965.7500          2.2508       5877.0068       2611.0498          0.2001       3028.0071       1345.3096          0.7718          0.2828          1.9409          4.0000
 1966.0000          2.2362       5802.1733       2594.6709          0.2168       3021.0269       1350.9771          0.8156          0.2008          1.9206          4.0000
 1966.2500          2.2312       5805.8149       2602.0710          0.2180       3037.3533       1361.2924          0.7875          0.2077          1.9115          4.0000
 1966.5000          2.2359       5948.3911       2660.4172          0.1938       3066.7754       1371.6230          0.7520          0.2861          1.9396          4.0000
 1966.7500          2.2449       6104.2466       2719.0867          0.1656       3087.6799       1375.4080          0.7083          0.3637          1.9769          4.0000
 1967.0000          2.2630       6347.4385       2804.8586          0.1657       3152.0405       1392.8604          0.7579          0.3319          2.0137          4.0000
 1967.2500          2.2859       6650.0303       2909.0156          0.1910       3249.8088       1421.6425          0.8270          0.2364          2.0462          4.0000
 1967.5000          2.2966       6795.1504       2958.8333          0.1981       3274.6755       1425.9027          0.8472          0.2228          2.0751          4.0000
 1967.7500          2.2922       6700.4707       2923.1042          0.1599       3197.1538       1394.7667          0.7918          0.3562          2.0958          1.0000
 1968.0000          2.2881       6634.9854       2899.7849          0.1409       3151.5999       1377.3895          0.8163          0.4585          2.1053          1.0000
 1968.2500          2.2881       6642.5889       2903.0791          0.1512       3158.1541       1380.2404          0.8719          0.4607          2.1033          1.0000
