~VERSION INFORMATION
 VERS.                          2.0   : CWLS LOG ASCII STANDARD - VERSION 2.0
 WRAP.                          NO    : ONE LINE PER DEPTH STEP
#
~Well Information Section
#MNEM     .UNIT     DATA                DESCRIPTION
#-----    -----     --------            --------------
 STRT     .M        1146.0000           : START DEPTH
 STOP     .M        2901.0000           : END DEPTH
 STEP     .M        0.2500              : INCREMENT DEPTH
 NULL     .         -999.2500           : NULL VALUE
 COMP     .                             :
 WELL     .         DD-1X               : WELL NAME
 EKB      .M        0.0000              : KELLY BUSHING ELEVATION
 EGL      .M        0.0000              : GROUND LEVEL ELEVATION
 FLD      .                              :
 LOC      . X = 451281.4100 Y = 1118162.4900: WELL LOCATION
 PROV     .                              :
 SRVC     .                              :
 PROV     .                              :
 DATE     .                              :
 UWI      .         Unknown              : UNIQUE WELL ID
 API      .                              :
#
~Curve Information Section
#MNEM     .UNIT               Curve #DESCRIPTION
#-----    -----               ----   --------------
 DEPTH    .M                  : 1     Name = Domain Curve - Type = DEPTH
 RHOB     .g/cm3              : 2     Name = Density - Type = Density
 UNKNOWN  .(m/s)*(g/cc)       : 3     Name = P-Impedance_trans - Type = P-Impedance
 DT       .m/s                : 4     Name = P-wave - Type = P-wave
 UNKNOWN  .v/v                : 5     Name = PHIE - Type = Porosity
 UNKNOWN  .(m/s)*(g/cc)       : 6     Name = S-Impedance_trans - Type = S-Impedance
 SDT      .m/s                : 7     Name = S-wave - Type = S-wave
 UNKNOWN  .0.Sw               : 8     Name = SW - Type = Water Saturation
 UNKNOWN  .fraction           : 9     Name = VWCL - Type = Volumetric
 UNKNOWN  .unitless           : 10    Name = VpVs_Ratio - Type = VpVs_Ratio
 UNKNOWN  .md                 : 11    Name = lithology - Type = lithology
~A (ASCII LOG DATA)
# ...
 1827.5000          2.3911       8776.7490       3670.6316          0.1546       4712.4971       1970.8710          0.5468          0.2206          1.8624          3.0000
 1827.7500          2.4001       8863.8809       3693.0955          0.1672       4750.8062       1979.4110          0.5847          0.1521          1.8658          3.0000
 1828.0000          2.4137       9001.8896       3729.5615          0.1787       4763.4238       1973.5317          0.6043          0.0862          1.8898          3.0000
 1828.2500          2.4195       8941.6250       3695.6406          0.1575       4692.2739       1939.3557          0.6480          0.1703          1.9057          3.0000
 1828.5000          2.4204       8785.4404       3629.7959          0.1137       4564.0586       1885.6869          0.7251          0.3633          1.9250          2.0000
 1828.7500          2.4141       8496.8262       3519.7021          0.0225       4348.3335       1801.2354          0.9691          0.6425          1.9541          2.0000
 1829.0000          2.4060       8247.5859       3427.7861          0.0014       4169.5166       1732.8796          1.0000          0.8073          1.9783          2.0000
 1829.2500          2.3920       7920.8169       3311.2754          0.0002       3943.2617       1648.4534          1.0000          0.8452          2.0089          1.0000
 1829.5000          2.3713       7563.3989       3189.3875          0.0003       3708.0161       1563.5990          1.0000          0.8298          2.0399          1.0000
 1829.7500          2.3541       7326.3989       3112.0938          0.0024       3561.9548       1513.0358          1.0000          0.7493          2.0569          1.0000
 1830.0000          2.3436       7240.3359       3089.4602          0.0266       3519.1821       1501.6415          0.9887          0.6363          2.0574          1.0000
 1830.2500          2.3409       7257.2207       3100.2378          0.0632       3574.3169       1526.9263          0.8809          0.5588          2.0306          1.0000
 1830.5000          2.3418       7318.0732       3125.0317          0.0270       3697.5728       1578.9667          0.9808          0.6162          1.9794          1.0000
 1830.7500          2.3464       7493.6230       3193.5994          0.0775       3859.1401       1644.6619          0.7848          0.4908          1.9420          3.0000
 1831.0000          2.3575       7829.1313       3320.8230          0.1612       4100.8740       1739.4185          0.5758          0.1933          1.9094          3.0000
 1831.2500          2.3671       8067.2393       3408.0420          0.1813       4315.5215       1823.0889          0.5385          0.1076          1.8697          3.0000
 1831.5000          2.3727       8221.7324       3465.0708          0.1636       4495.6396       1894.6964          0.5265          0.1915          1.8289          3.0000
 1831.7500          2.3751       8368.2510       3523.3784          0.1658       4615.0181       1943.1121          0.5560          0.1861          1.8133          3.0000
 1832.0000          2.3769       8545.1777       3595.0764          0.1802       4699.6611       1977.2142          0.5589          0.1301          1.8182          3.0000
 1832.2500          2.3768       8713.9834       3666.2756          0.1966       4759.4614       2002.4707          0.5519          0.0722          1.8309          3.0000
 1832.5000          2.3712       8651.5039       3648.5933          0.1981       4731.1821       1995.2867          0.5695          0.0680          1.8286          3.0000
 1832.7500          2.3615       8476.5225       3589.5327          0.1901       4667.6201       1976.5870          0.5994          0.0848          1.8160          3.0000
 1833.0000          2.3593       8468.8330       3589.5798          0.1755       4656.7246       1973.7922          0.6380          0.1349          1.8186          3.0000
 1833.2500          2.3646       8602.1807       3637.9619          0.1684       4706.0161       1990.2296          0.6392          0.1773          1.8279          5.0000
 1833.5000          2.3682       8655.3311       3654.7422          0.1841       4747.7383       2004.7487          0.5980          0.1692          1.8230          3.0000
 1833.7500          2.3666       8564.1211       3618.7000          0.1772       4738.2080       2002.0955          0.6111          0.1799          1.8074          3.0000
 1834.0000          2.3632       8439.1230       3571.1094          0.1749       4713.9082       1994.7452          0.6105          0.1287          1.7903          3.0000
 1834.2500          2.3652       8448.1328       3571.8042          0.2002       4726.6108       1998.3854          0.5952          0.0228          1.7873          3.0000
 1834.5000          2.3748       8616.3672       3628.2515          0.2064       4766.5107       2007.1320          0.5710          0.0369          1.8077          3.0000
 1834.7500          2.3796       8660.1172       3639.3132          0.1906       4759.5332       2000.1385          0.5843          0.1161          1.8195          3.0000
 1835.0000          2.3783       8556.2988       3597.6680          0.1838       4682.5522       1968.8717          0.5919          0.1616          1.8273          3.0000
 1835.2500          2.3772       8468.3643       3562.3296          0.1730       4578.9878       1926.2129          0.5835          0.2065          1.8495          3.0000
 1835.5000          2.3795       8457.5342       3554.3020          0.1631       4505.9888       1893.6609          0.6044          0.2333          1.8770          3.0000
 1835.7500          2.3845       8466.3613       3550.5391          0.1530       4430.5859       1858.0580          0.6423          0.2692          1.9109          3.0000
 1836.0000          2.3840       8365.9980       3509.1750          0.1484       4335.6265       1818.6044          0.6281          0.2939          1.9297          3.0000
 1836.2500          2.3759       8135.6230       3424.1755          0.1537       4172.7534       1756.2461          0.6021          0.3004          1.9498          3.0000
 1836.5000          2.3538       7709.6050       3275.1746          0.1518       3878.1282       1647.4633          0.5537          0.3958          1.9883          2.0000
 1836.7500          2.3349       7376.4795       3159.1250          0.1090       3649.3330       1562.8684          0.6671          0.5070          2.0216          1.0000
 1837.0000          2.3163       7080.9702       3056.9744          0.0777       3450.8057       1489.7653          0.8974          0.5396          2.0520          1.0000
 1837.2500          2.3021       6889.7656       2992.7607          0.1055       3327.7312       1445.4794          0.8455          0.5162          2.0705          1.0000
 1837.5000          2.2880       6709.5327       2932.3945          0.1541       3227.5393       1410.5989          0.6748          0.4822          2.0788          1.0000
 1837.7500          2.2696       6457.2881       2845.1460          0.1918       3157.6836       1391.3232          0.5356          0.4470          2.0450          1.0000
 1838.0000          2.2655       6425.2241       2836.1521          0.1749       3211.7080       1417.6667          0.7359          0.4074          2.0009          4.0000
 1838.2500          2.2716       6554.8188       2885.4907          0.1945       3379.8701       1487.8346          0.7753          0.3148          1.9397          4.0000
 1838.5000          2.2808       6721.4668       2946.9658          0.2285       3574.7551       1567.2985          0.7478          0.1755          1.8806          4.0000
 1838.7500          2.2903       6898.8110       3012.0942          0.2027       3736.5059       1631.3881          0.8332          0.1702          1.8464          4.0000
 1839.0000          2.3022       7119.9873       3092.6372          0.1883       3890.1763       1689.7267          0.8667          0.1721          1.8303          4.0000
