~VERSION INFORMATION
 VERS.                          2.0   : CWLS LOG ASCII STANDARD - VERSION 2.0
 WRAP.                          NO    : ONE LINE PER DEPTH STEP
#
~Well Information Section
#MNEM     .UNIT     DATA                DESCRIPTION
#-----    -----     --------            --------------
 STRT     .M        1119.0000           : START DEPTH
 STOP     .M        2191.0000           : END DEPTH
 STEP     .M        0.2500              : INCREMENT DEPTH
 NULL     .         -999.2500           : NULL VALUE
 COMP     .                             :
 WELL     .         DD-2X               : WELL NAME
 EKB      .M        28.8000             : KELLY BUSHING ELEVATION
 EGL      .M        0.0000              : GROUND LEVEL ELEVATION
 FLD      .                              :
 LOC      . X = 452421.8000 Y = 1118910.9600: WELL LOCATION
 PROV     .                              :
 SRVC     .                              :
 PROV     .                              :
 DATE     .                              :
 UWI      .         Unknown              : UNIQUE WELL ID
 API      .                              :
#
~Curve Information Section
#MNEM     .UNIT               Curve #DESCRIPTION
#-----    -----               ----   --------------
 DEPTH    .M                  : 1     Name = Domain Curve - Type = DEPTH
 RHOB     .g/cm3              : 2     Name = Density - Type = Density
 UNKNOWN  .(m/s)*(g/cc)       : 3     Name = P-Impedance_trans - Type = P-Impedance
 DT       .m/s                : 4     Name = P-wave - Type = P-wave
 UNKNOWN  .v/v                : 5     Name = PHIE - Type = Porosity
 UNKNOWN  .(m/s)*(g/cc)       : 6     Name = S-Impedance_trans - Type = S-Impedance
 SDT      .m/s                : 7     Name = S-wave - Type = S-wave
 UNKNOWN  .0.Sw               : 8     Name = SW - Type = Water Saturation
 UNKNOWN  .fraction           : 9     Name = VWCL - Type = Volumetric
 UNKNOWN  .unitless           : 10    Name = VpVs_Ratio - Type = VpVs_Ratio
 UNKNOWN  .md                 : 11    Name = lithology - Type = lithology
~A (ASCII LOG DATA)
# ...
 2059.0000          2.4749       8460.4385       3418.2673          0.0001       4104.0635       1658.1300          1.0000          0.8805          2.0618          1.0000
 2059.2500          2.4520       7956.0757       3244.4363          0.0001       3795.4131       1547.7103          1.0000          0.9785          2.0966          1.0000
 2059.5000          2.4252       7395.7144       3049.4614          0.0001       3453.3809       1423.9014          1.0000          0.9846          2.1419          1.0000
 2059.7500          2.4133       7158.3687       2966.2285          0.0001       3296.1301       1365.8188          1.0000          0.9683          2.1718          1.0000
 2060.0000          2.4064       7031.1768       2921.8853          0.0001       3208.8345       1333.4640          1.0000          0.9549          2.1912          1.0000
 2060.2500          2.4013       6947.8521       2893.3281          0.0001       3153.6301       1313.2809          1.0000          0.8900          2.2031          1.0000
 2060.5000          2.3965       6893.0640       2876.3513          0.0002       3122.2957       1302.8774          1.0000          0.8512          2.2077          1.0000
 2060.7500          2.3926       6873.1050       2872.5996          0.0001       3117.7371       1303.0521          1.0000          0.8654          2.2045          1.0000
 2061.0000          2.3908       6898.8496       2885.5415          0.0004       3146.7368       1316.1672          1.0000          0.8067          2.1924          1.0000
 2061.2500          2.3901       6923.6450       2896.8169          0.0005       3171.0159       1326.7369          1.0000          0.7955          2.1834          1.0000
 2061.5000          2.3870       6922.6250       2900.1074          0.0002       3179.8110       1332.1240          1.0000          0.8427          2.1771          1.0000
 2061.7500          2.3815       6896.9014       2896.0659          0.0001       3173.7795       1332.6978          1.0000          0.9293          2.1731          1.0000
 2062.0000          2.3785       6915.8286       2907.6836          0.0002       3201.0706       1345.8547          1.0000          0.8596          2.1605          1.0000
 2062.2500          2.3790       7023.8164       2952.4175          0.0009       3290.7244       1383.2339          1.0000          0.7715          2.1346          1.0000
 2062.5000          2.3797       7170.9116       3013.3223          0.0002       3411.1270       1433.4053          1.0000          0.8583          2.1023          1.0000
 2062.7500          2.3807       7350.7402       3087.6482          0.0001       3557.5757       1494.3389          1.0000          0.9266          2.0666          1.0000
 2063.0000          2.3923       7758.9683       3243.1321          0.0004       3852.9050       1610.4260          1.0000          0.8413          2.0142          1.0000
 2063.2500          2.4223       8563.2529       3534.4622          0.0271       4393.9170       1813.4619          1.0000          0.6621          1.9502          1.0000
 2063.5000          2.4516       9383.4160       3827.1094          0.1202       4933.9536       2012.3081          0.9847          0.4368          1.9022          4.0000
 2063.7500          2.4858      10401.9658       4184.2939          0.1307       5592.3135       2249.5322          1.0000          0.3506          1.8603          4.0000
 2064.0000          2.5049      11008.1123       4394.3916          0.1163       5987.0889       2389.9978          0.9233          0.4008          1.8388          4.0000
 2064.2500          2.5135      11380.2559       4527.5771          0.1281       6246.1665       2485.0059          0.7631          0.3637          1.8220          4.0000
 2064.5000          2.5092      11399.7324       4543.0674          0.1313       6275.2534       2500.8408          0.6705          0.3733          1.8166          1.0000
 2064.7500          2.4898      11057.0029       4440.7295          0.1423       6078.3843       2441.1968          0.8460          0.4492          1.8191          1.0000
 2065.0000          2.4590      10415.0996       4234.9658          0.1519       5692.0259       2314.4441          0.7760          0.4440          1.8299          1.0000
 2065.2500          2.4184       9549.4395       3948.2820          0.1531       5171.3721       2138.1116          0.7655          0.4216          1.8467          1.0000
 2065.5000          2.3852       8867.8242       3717.3635          0.1490       4760.1143       1995.3782          0.8029          0.3997          1.8632          4.0000
 2065.7500          2.3567       8316.4424       3528.7903          0.1544       4416.5664       1874.0079          0.8017          0.3519          1.8831          4.0000
 2066.0000          2.3435       8076.0288       3446.1348          0.1384       4261.4946       1818.4214          0.7763          0.4427          1.8952          1.0000
 2066.2500          2.3338       7920.4531       3393.8296          0.1459       4163.7056       1784.1019          0.7336          0.4220          1.9023          4.0000
 2066.5000          2.3264       7838.9082       3369.4734          0.1614       4116.7979       1769.5632          0.6776          0.3522          1.9041          4.0000
 2066.7500          2.3243       7847.5254       3376.2302          0.1486       4128.7139       1776.2915          0.6471          0.4108          1.9007          1.0000
 2067.0000          2.3196       7823.5938       3372.7593          0.1433       4120.2490       1776.2437          0.6597          0.4399          1.8988          1.0000
 2067.2500          2.3127       7765.1196       3357.6563          0.1523       4089.8369       1768.4553          0.6888          0.4236          1.8986          1.0000
 2067.5000          2.3052       7695.8066       3338.4607          0.1578       4050.6631       1757.1869          0.6699          0.3756          1.8999          4.0000
 2067.7500          2.2979       7609.4458       3311.4116          0.1869       3998.0779       1739.8468          0.6674          0.2378          1.9033          4.0000
 2068.0000          2.2943       7549.9380       3290.6934          0.1940       3958.4126       1725.3018          0.7905          0.2082          1.9073          4.0000
 2068.2500          2.2964       7566.5859       3294.9683          0.1907       3966.6331       1727.3214          0.8198          0.2160          1.9076          4.0000
 2068.5000          2.3032       7665.5576       3328.1465          0.1821       4028.3933       1749.0010          0.8148          0.2529          1.9029          4.0000
 2068.7500          2.3121       7807.5923       3376.8728          0.1602       4120.7510       1782.2684          0.7223          0.3827          1.8947          1.0000
 2069.0000          2.3159       7885.7441       3405.0391          0.0982       4174.4824       1802.5281          0.8516          0.5141          1.8890          1.0000
 2069.2500          2.3154       7924.3330       3422.4475          0.0868       4206.2734       1816.6520          0.8804          0.5318          1.8839          1.0000
 2069.5000          2.3114       7942.2212       3436.0383          0.1378       4229.5986       1829.8505          0.7203          0.4382          1.8778          4.0000
 2069.7500          2.3026       7897.0225       3429.5789          0.1962       4212.3608       1829.3767          0.7910          0.2120          1.8747          4.0000
 2070.0000          2.2922       7792.7988       3399.6858          0.2089       4153.8438       1812.1549          0.8323          0.1369          1.8760          4.0000
 2070.2500          2.2891       7742.7031       3382.4150          0.2023       4121.7788       1800.6068          0.8564          0.1393          1.8785          4.0000
 2070.5000          2.2924       7762.0386       3385.9824          0.2001       4129.4180       1801.3490          0.8481          0.1502          1.8797          4.0000
