~VERSION INFORMATION
 VERS.                          2.0   : CWLS LOG ASCII STANDARD - VERSION 2.0
 WRAP.                          NO    : ONE LINE PER DEPTH STEP
#
~Well Information Section
#MNEM     .UNIT     DATA                DESCRIPTION
#-----    -----     --------            --------------
 STRT     .M        1119.0000           : START DEPTH
 STOP     .M        2191.0000           : END DEPTH
 STEP     .M        0.2500              : INCREMENT DEPTH
 NULL     .         -999.2500           : NULL VALUE
 COMP     .                             :
 WELL     .         DD-2X               : WELL NAME
 EKB      .M        28.8000             : KELLY BUSHING ELEVATION
 EGL      .M        0.0000              : GROUND LEVEL ELEVATION
 FLD      .                              :
 LOC      . X = 452421.8000 Y = 1118910.9600: WELL LOCATION
 PROV     .                              :
 SRVC     .                              :
 PROV     .                              :
 DATE     .                              :
 UWI      .         Unknown              : UNIQUE WELL ID
 API      .                              :
#
~Curve Information Section
#MNEM     .UNIT               Curve #DESCRIPTION
#-----    -----               ----   --------------
 DEPTH    .M                  : 1     Name = Domain Curve - Type = DEPTH
 RHOB     .g/cm3              : 2     Name = Density - Type = Density
 UNKNOWN  .(m/s)*(g/cc)       : 3     Name = P-Impedance_trans - Type = P-Impedance
 DT       .m/s                : 4     Name = P-wave - Type = P-wave
 UNKNOWN  .v/v                : 5     Name = PHIE - Type = Porosity
 UNKNOWN  .(m/s)*(g/cc)       : 6     Name = S-Impedance_trans - Type = S-Impedance
 SDT      .m/s                : 7     Name = S-wave - Type = S-wave
 UNKNOWN  .0.Sw               : 8     Name = SW - Type = Water Saturation
 UNKNOWN  .fraction           : 9     Name = VWCL - Type = Volumetric
 UNKNOWN  .unitless           : 10    Name = VpVs_Ratio - Type = VpVs_Ratio
 UNKNOWN  .md                 : 11    Name = lithology - Type = lithology
~A (ASCII LOG DATA)
# ...
 1800.5000          2.4556       8997.0703       3663.8745          0.0113       4662.1626       1898.5715          1.0000          0.6123          1.9298          1.0000
 1800.7500          2.4540       8992.0000       3664.2085          0.0189       4663.8008       1900.4824          1.0000          0.5711          1.9280          1.0000
 1801.0000          2.4501       8935.5215       3647.0020          0.0171       4631.3096       1890.2517          1.0000          0.5922          1.9294          1.0000
 1801.2500          2.4433       8815.7656       3608.1199          0.0347       4557.6138       1865.3390          1.0000          0.5594          1.9343          1.0000
 1801.5000          2.4327       8612.7314       3540.3948          0.0316       4429.9448       1820.9896          1.0000          0.5877          1.9443          1.0000
 1801.7500          2.4203       8368.2725       3457.4814          0.0058       4274.3691       1766.0137          1.0000          0.6963          1.9578          1.0000
 1802.0000          2.4082       8126.5996       3374.5129          0.0026       4119.4673       1710.5718          1.0000          0.7387          1.9728          1.0000
 1802.2500          2.4037       8016.7744       3335.1636          0.0022       4045.6882       1683.0999          1.0000          0.7485          1.9816          1.0000
 1802.5000          2.4071       8050.4419       3344.4287          0.0101       4061.3430       1687.2202          1.0000          0.7167          1.9822          1.0000
 1802.7500          2.4121       8114.0728       3363.9514          0.0289       4096.9058       1698.5044          1.0000          0.6081          1.9805          1.0000
 1803.0000          2.4201       8216.2363       3395.0071          0.0036       4153.5815       1716.2886          1.0000          0.7166          1.9781          1.0000
 1803.2500          2.4288       8338.6484       3433.1433          0.0072       4224.2866       1739.1968          1.0000          0.6834          1.9740          1.0000
 1803.5000          2.4401       8502.8359       3484.5476          0.0053       4320.8857       1770.7402          1.0000          0.7430          1.9679          1.0000
 1803.7500          2.4500       8650.7344       3530.8506          0.0001       4406.6646       1798.6066          1.0000          0.7913          1.9631          1.0000
 1804.0000          2.4529       8682.8975       3539.7881          0.0001       4422.9512       1803.1205          1.0000          0.7533          1.9631          1.0000
 1804.2500          2.4537       8666.2607       3531.9165          0.0001       4406.6724       1795.9304          1.0000          0.7969          1.9666          1.0000
 1804.5000          2.4555       8656.8467       3525.4785          0.0001       4392.5073       1788.8376          0.9989          0.8154          1.9708          1.0000
 1804.7500          2.4572       8641.7246       3516.8862          0.0002       4374.2778       1780.1818          1.0000          0.7222          1.9756          1.0000
 1805.0000          2.4570       8578.0898       3491.2913          0.0004       4323.1685       1759.5334          1.0000          0.6686          1.9842          1.0000
 1805.2500          2.4548       8440.1982       3438.2759          0.0005       4219.4463       1718.8698          1.0000          0.7280          2.0004          1.0000
 1805.5000          2.4528       8305.3574       3386.0879          0.0001       4116.3115       1678.2159          0.9622          0.8942          2.0177          1.0000
 1805.7500          2.4513       8160.2720       3328.9336          0.0001       4002.2778       1632.7047          1.0000          1.0000          2.0389          1.0000
 1806.0000          2.4501       8064.8008       3291.6021          0.0001       3928.0815       1603.2222          0.9819          0.9771          2.0532          1.0000
 1806.2500          2.4473       7950.4751       3248.6973          0.0001       3843.9468       1570.6997          0.9721          0.9779          2.0683          1.0000
 1806.5000          2.4450       7875.8013       3221.2002          0.0001       3790.5806       1550.3459          1.0000          1.0000          2.0777          1.0000
 1806.7500          2.4424       7838.9976       3209.5039          0.0001       3770.2158       1543.6315          1.0000          1.0000          2.0792          1.0000
 1807.0000          2.4386       7822.7949       3207.8572          0.0001       3769.2144       1545.6255          1.0000          1.0000          2.0754          1.0000
 1807.2500          2.4341       7834.3237       3218.6306          0.0001       3795.5483       1559.3528          0.9612          0.9213          2.0641          1.0000
 1807.5000          2.4314       7876.6978       3239.5583          0.0001       3839.8462       1579.2683          0.9490          0.9564          2.0513          1.0000
 1807.7500          2.4298       7957.8975       3275.0906          0.0001       3911.9119       1609.9565          0.9783          0.9063          2.0343          1.0000
 1808.0000          2.4280       8043.8262       3312.8909          0.0006       3988.9595       1642.8748          1.0000          0.7762          2.0166          1.0000
 1808.2500          2.4269       8105.3057       3339.8210          0.0014       4043.6821       1666.2141          1.0000          0.7528          2.0045          1.0000
 1808.5000          2.4275       8200.4053       3378.0793          0.0010       4119.1084       1696.8265          1.0000          0.7618          1.9909          1.0000
 1808.7500          2.4307       8324.6689       3424.7310          0.0068       4209.5557       1731.7889          1.0000          0.6954          1.9776          1.0000
 1809.0000          2.4368       8491.6465       3484.7175          0.0316       4323.6577       1774.2958          0.9624          0.5957          1.9640          1.0000
 1809.2500          2.4418       8604.6357       3523.9377          0.0078       4397.4897       1800.9451          0.9963          0.7323          1.9567          1.0000
 1809.5000          2.4447       8663.2305       3543.6851          0.0001       4434.5986       1813.9675          0.9636          0.8780          1.9536          1.0000
 1809.7500          2.4472       8715.5010       3561.4763          0.0156       4468.3398       1825.9286          1.0000          0.6946          1.9505          1.0000
 1810.0000          2.4516       8793.4248       3586.7988          0.0680       4515.2598       1841.7544          1.0000          0.4602          1.9475          1.0000
 1810.2500          2.4523       8779.1016       3579.9551          0.0506       4501.5308       1835.6394          1.0000          0.5494          1.9503          1.0000
 1810.5000          2.4454       8621.7920       3525.7461          0.0013       4397.0493       1798.1000          1.0000          0.7812          1.9608          1.0000
 1810.7500          2.4302       8351.8105       3436.6338          0.0001       4227.6455       1739.5966          1.0000          0.8248          1.9756          1.0000
 1811.0000          2.4175       8148.4453       3370.5259          0.0001       4102.9634       1697.1478          0.9888          0.8589          1.9860          1.0000
 1811.2500          2.4077       8003.7871       3324.2808          0.0001       4017.1738       1668.4850          1.0000          0.8245          1.9924          1.0000
 1811.5000          2.3983       7886.2832       3288.2703          0.0001       3952.4177       1648.0029          1.0000          0.7079          1.9953          1.0000
 1811.7500          2.3904       7824.1655       3273.1201          0.0071       3927.8406       1643.1541          1.0000          0.6338          1.9920          1.0000
 1812.0000          2.3867       7844.8110       3286.9231          0.0297       3955.8623       1657.4802          1.0000          0.5303          1.9831          1.0000
