~VERSION INFORMATION
 VERS.                          2.0   : CWLS LOG ASCII STANDARD - VERSION 2.0
 WRAP.                          NO    : ONE LINE PER DEPTH STEP
#
~Well Information Section
#MNEM     .UNIT     DATA                DESCRIPTION
#-----    -----     --------            --------------
 STRT     .M        1119.0000           : START DEPTH
 STOP     .M        2191.0000           : END DEPTH
 STEP     .M        0.2500              : INCREMENT DEPTH
 NULL     .         -999.2500           : NULL VALUE
 COMP     .                             :
 WELL     .         DD-2X               : WELL NAME
 EKB      .M        28.8000             : KELLY BUSHING ELEVATION
 EGL      .M        0.0000              : GROUND LEVEL ELEVATION
 FLD      .                              :
 LOC      . X = 452421.8000 Y = 1118910.9600: WELL LOCATION
 PROV     .                              :
 SRVC     .                              :
 PROV     .                              :
 DATE     .                              :
 UWI      .         Unknown              : UNIQUE WELL ID
 API      .                              :
#
~Curve Information Section
#MNEM     .UNIT               Curve #DESCRIPTION
#-----    -----               ----   --------------
 DEPTH    .M                  : 1     Name = Domain Curve - Type = DEPTH
 RHOB     .g/cm3              : 2     Name = Density - Type = Density
 UNKNOWN  .(m/s)*(g/cc)       : 3     Name = P-Impedance_trans - Type = P-Impedance
 DT       .m/s                : 4     Name = P-wave - Type = P-wave
 UNKNOWN  .v/v                : 5     Name = PHIE - Type = Porosity
 UNKNOWN  .(m/s)*(g/cc)       : 6     Name = S-Impedance_trans - Type = S-Impedance
 SDT      .m/s                : 7     Name = S-wave - Type = S-wave
 UNKNOWN  .0.Sw               : 8     Name = SW - Type = Water Saturation
 UNKNOWN  .fraction           : 9     Name = VWCL - Type = Volumetric
 UNKNOWN  .unitless           : 10    Name = VpVs_Ratio - Type = VpVs_Ratio
 UNKNOWN  .md                 : 11    Name = lithology - Type = lithology
~A (ASCII LOG DATA)
# ...
 1871.0000          2.3976       8292.5938       3458.6843          0.1193       4288.4263       1788.6219          0.8829          0.2189          1.9337          4.0000
 1871.2500          2.3957       8283.3223       3457.6475          0.1322       4287.2456       1789.5940          0.9011          0.1810          1.9321          4.0000
 1871.5000          2.3963       8300.1260       3463.6604          0.1229       4298.3628       1793.7162          0.9151          0.2333          1.9310          4.0000
 1871.7500          2.3989       8337.3389       3475.5415          0.1069       4320.2939       1800.9772          0.9092          0.3081          1.9298          4.0000
 1872.0000          2.4058       8437.8057       3507.3081          0.1061       4379.8271       1820.5438          0.9015          0.3076          1.9265          4.0000
 1872.2500          2.4147       8539.3379       3536.3108          0.0980       4433.6050       1836.0458          0.9042          0.3350          1.9260          4.0000
 1872.5000          2.4249       8607.7646       3549.7395          0.0901       4456.1025       1837.6449          0.9544          0.3682          1.9317          4.0000
 1872.7500          2.4331       8598.2832       3533.8743          0.0865       4421.6870       1817.3109          0.9476          0.3712          1.9446          1.0000
 1873.0000          2.4399       8559.0332       3507.9275          0.0713       4366.7397       1789.7156          0.9739          0.4338          1.9601          1.0000
 1873.2500          2.4498       8522.8447       3479.0420          0.0436       4303.8433       1756.8435          0.9883          0.5340          1.9803          1.0000
 1873.5000          2.4550       8462.3105       3447.0054          0.0152       4235.9546       1725.4601          1.0000          0.6416          1.9978          1.0000
 1873.7500          2.4553       8336.2861       3395.2703          0.0011       4133.2520       1683.4227          0.9939          0.7125          2.0169          1.0000
 1874.0000          2.4518       8241.6162       3361.4792          0.0001       4068.7615       1659.5111          0.9654          0.7918          2.0256          1.0000
 1874.2500          2.4465       8209.0723       3355.4824          0.0109       4059.7678       1659.4446          0.9987          0.6642          2.0221          1.0000
 1874.5000          2.4390       8196.9082       3360.8372          0.0502       4075.9531       1671.1976          1.0000          0.4988          2.0110          1.0000
 1874.7500          2.4234       8121.9497       3351.4019          0.0480       4066.1621       1677.8481          0.9915          0.5156          1.9974          1.0000
 1875.0000          2.4101       8066.2705       3346.8018          0.0601       4064.3757       1686.3738          0.9462          0.4813          1.9846          1.0000
 1875.2500          2.4005       8086.7153       3368.8247          0.0856       4113.3477       1713.5715          0.8921          0.3832          1.9660          4.0000
 1875.5000          2.3950       8127.0903       3393.4326          0.0961       4162.6284       1738.0920          0.9090          0.3528          1.9524          4.0000
 1875.7500          2.3918       8164.4634       3413.5789          0.0921       4203.1606       1757.3501          0.8361          0.3930          1.9425          4.0000
 1876.0000          2.3944       8267.2041       3452.6726          0.1100       4276.2383       1785.9036          0.8190          0.3336          1.9333          4.0000
 1876.2500          2.4021       8397.0879       3495.6382          0.1253       4356.6841       1813.6498          0.8260          0.3019          1.9274          4.0000
 1876.5000          2.4102       8495.0576       3524.5852          0.1053       4410.8848       1830.0691          0.9364          0.3310          1.9259          4.0000
 1876.7500          2.4128       8495.4971       3520.9600          0.0632       4403.6484       1825.0925          0.9723          0.4688          1.9292          1.0000
 1877.0000          2.4117       8445.4971       3501.8796          0.0711       4366.2915       1810.4586          0.9841          0.4181          1.9343          4.0000
 1877.2500          2.4111       8420.6406       3492.3835          0.0768       4348.1006       1803.3350          0.9904          0.3986          1.9366          1.0000
 1877.5000          2.4101       8394.1777       3482.9263          0.0670       4330.4951       1796.8159          0.9789          0.4417          1.9384          1.0000
 1877.7500          2.4075       8358.5137       3471.8279          0.0693       4310.2715       1790.3325          0.9444          0.4446          1.9392          1.0000
 1878.0000          2.4031       8310.7627       3458.3074          0.0713       4286.2266       1783.6017          0.8905          0.4736          1.9389          1.0000
 1878.2500          2.4016       8315.7900       3462.6575          0.0843       4295.1602       1788.4847          0.8772          0.4246          1.9361          4.0000
 1878.5000          2.4056       8409.8340       3495.9409          0.0972       4358.5864       1811.8485          0.9011          0.3572          1.9295          4.0000
 1878.7500          2.4120       8525.9570       3534.7815          0.0976       4432.2856       1837.5829          0.9871          0.3212          1.9236          4.0000
 1879.0000          2.4137       8552.6182       3543.3374          0.0895       4448.1909       1842.8790          0.9933          0.3399          1.9227          4.0000
 1879.2500          2.4130       8529.6553       3534.8911          0.0797       4432.4766       1836.9231          0.9897          0.3561          1.9244          4.0000
 1879.5000          2.4150       8557.1465       3543.2578          0.0902       4447.5054       1841.5784          1.0000          0.2494          1.9240          4.0000
 1879.7500          2.4198       8619.8262       3562.2498          0.1146       4483.1104       1852.7006          0.9978          0.1620          1.9227          4.0000
 1880.0000          2.4211       8614.3633       3557.9761          0.1140       4474.5239       1848.1051          0.9682          0.1787          1.9252          4.0000
 1880.2500          2.4178       8496.3486       3514.1509          0.1052       4390.7388       1816.0403          0.9275          0.2405          1.9351          4.0000
 1880.5000          2.4176       8423.6514       3484.2886          0.0784       4332.1914       1791.9326          0.9292          0.3569          1.9444          1.0000
 1880.7500          2.4215       8378.0605       3459.8875          0.0573       4283.3149       1768.8821          0.9878          0.4854          1.9560          1.0000
 1881.0000          2.4232       8301.2549       3425.8037          0.0604       4215.0479       1739.4874          0.9869          0.4923          1.9695          1.0000
 1881.2500          2.4226       8183.1016       3377.7810          0.0623       4122.1582       1701.5239          0.9480          0.4843          1.9852          1.0000
 1881.5000          2.4231       8106.2500       3345.4343          0.0662       4057.9265       1674.6997          0.9415          0.4616          1.9976          1.0000
 1881.7500          2.4258       8075.2173       3328.8914          0.0587       4024.2400       1658.9352          0.9969          0.4925          2.0066          1.0000
 1882.0000          2.4244       8018.1201       3307.3137          0.0459       3981.5295       1642.2993          1.0000          0.5523          2.0138          1.0000
 1882.2500          2.4167       7897.2485       3267.7808          0.0163       3906.9478       1616.6447          1.0000          0.6375          2.0213          1.0000
 1882.5000          2.4088       7821.1753       3246.8882          0.0395       3870.1973       1606.6779          1.0000          0.5770          2.0209          1.0000
