~VERSION INFORMATION
 VERS.                          2.0   : CWLS LOG ASCII STANDARD - VERSION 2.0
 WRAP.                          NO    : ONE LINE PER DEPTH STEP
#
~Well Information Section
#MNEM     .UNIT     DATA                DESCRIPTION
#-----    -----     --------            --------------
 STRT     .M        1119.0000           : START DEPTH
 STOP     .M        2191.0000           : END DEPTH
 STEP     .M        0.2500              : INCREMENT DEPTH
 NULL     .         -999.2500           : NULL VALUE
 COMP     .                             :
 WELL     .         DD-2X               : WELL NAME
 EKB      .M        28.8000             : KELLY BUSHING ELEVATION
 EGL      .M        0.0000              : GROUND LEVEL ELEVATION
 FLD      .                              :
 LOC      . X = 452421.8000 Y = 1118910.9600: WELL LOCATION
 PROV     .                              :
 SRVC     .                              :
 PROV     .                              :
 DATE     .                              :
 UWI      .         Unknown              : UNIQUE WELL ID
 API      .                              :
#
~Curve Information Section
#MNEM     .UNIT               Curve #DESCRIPTION
#-----    -----               ----   --------------
 DEPTH    .M                  : 1     Name = Domain Curve - Type = DEPTH
 RHOB     .g/cm3              : 2     Name = Density - Type = Density
 UNKNOWN  .(m/s)*(g/cc)       : 3     Name = P-Impedance_trans - Type = P-Impedance
 DT       .m/s                : 4     Name = P-wave - Type = P-wave
 UNKNOWN  .v/v                : 5     Name = PHIE - Type = Porosity
 UNKNOWN  .(m/s)*(g/cc)       : 6     Name = S-Impedance_trans - Type = S-Impedance
 SDT      .m/s                : 7     Name = S-wave - Type = S-wave
 UNKNOWN  .0.Sw               : 8     Name = SW - Type = Water Saturation
 UNKNOWN  .fraction           : 9     Name = VWCL - Type = Volumetric
 UNKNOWN  .unitless           : 10    Name = VpVs_Ratio - Type = VpVs_Ratio
 UNKNOWN  .md                 : 11    Name = lithology - Type = lithology
~A (ASCII LOG DATA)
# ...
 1483.2500          2.2633       7655.9023       3382.6487          0.2137       4146.5928       1832.1084          0.6278          0.1271          1.8463          4.0000
 1483.5000          2.2560       7548.0073       3345.7263          0.1942       4073.3220       1805.5364          0.7616          0.1743          1.8531          4.0000
 1483.7500          2.2499       7431.7373       3303.1943          0.2430       3991.7908       1774.2334          1.0000          0.1415          1.8618          4.0000
 1484.0000          2.2378       7228.7134       3230.2183          0.2727       3831.3584       1712.0530          0.9787          0.1963          1.8869          4.0000
 1484.2500          2.2175       6915.0273       3118.1545          0.2847       3588.0310       1617.8752          1.0000          0.1528          1.9277          4.0000
 1484.5000          2.1989       6617.2788       3009.2717          0.2676       3379.0771       1536.6592          1.0000          0.1707          1.9584          4.0000
 1484.7500          2.1901       6459.7383       2949.4858          0.2671       3269.5657       1492.8654          1.0000          0.1792          1.9758          4.0000
 1485.0000          2.1877       6405.5757       2928.0498          0.2800       3229.4280       1476.2020          1.0000          0.1759          1.9835          4.0000
 1485.2500          2.1854       6362.5132       2911.3936          0.2763       3198.2544       1463.4742          1.0000          0.1831          1.9894          4.0000
 1485.5000          2.1828       6323.7266       2897.0281          0.2911       3171.1831       1452.7831          1.0000          0.1514          1.9941          4.0000
 1485.7500          2.1810       6296.0493       2886.7517          0.2984       3151.6348       1445.0309          1.0000          0.1372          1.9977          4.0000
 1486.0000          2.1817       6301.3081       2888.2815          0.2826       3154.9343       1446.1024          0.9947          0.1687          1.9973          4.0000
 1486.2500          2.1853       6351.5381       2906.4468          0.2730       3189.1843       1459.3605          0.9877          0.1932          1.9916          4.0000
 1486.5000          2.1906       6430.7422       2935.6541          0.2663       3244.4556       1481.1013          1.0000          0.1937          1.9821          4.0000
 1486.7500          2.1947       6498.9053       2961.2402          0.2621       3293.0481       1500.4843          1.0000          0.2081          1.9735          4.0000
 1487.0000          2.1940       6503.7666       2964.3345          0.2547       3298.3635       1503.3523          1.0000          0.2263          1.9718          4.0000
 1487.2500          2.1911       6483.1108       2958.8301          0.2511       3286.5886       1499.9675          1.0000          0.2270          1.9726          4.0000
 1487.5000          2.1852       6427.6602       2941.3872          0.2690       3251.6106       1487.9800          1.0000          0.2060          1.9768          4.0000
 1487.7500          2.1774       6341.8643       2912.6274          0.2864       3195.7380       1467.7025          1.0000          0.1893          1.9845          4.0000
 1488.0000          2.1662       6214.5864       2868.8538          0.2933       3111.2485       1436.2487          1.0000          0.1804          1.9975          4.0000
 1488.2500          2.1587       6131.8413       2840.5017          0.3107       3057.0122       1416.1222          1.0000          0.1512          2.0058          4.0000
 1488.5000          2.1537       6077.8174       2822.0696          0.3080       3021.5457       1402.9722          1.0000          0.1462          2.0115          4.0000
 1488.7500          2.1511       6049.0576       2812.1116          0.3069       3002.5310       1395.8292          1.0000          0.1434          2.0147          4.0000
 1489.0000          2.1504       6042.1860       2809.8501          0.3030       2997.9949       1394.1835          1.0000          0.1446          2.0154          4.0000
 1489.2500          2.1519       6063.8057       2817.8857          0.3006       3013.1616       1400.2332          1.0000          0.1466          2.0124          4.0000
 1489.5000          2.1567       6129.0684       2841.8123          0.3033       3058.4763       1418.0968          1.0000          0.1375          2.0040          4.0000
 1489.7500          2.1597       6165.7271       2854.9202          0.3032       3083.5459       1427.7754          1.0000          0.1414          1.9996          4.0000
 1490.0000          2.1630       6205.8599       2869.0820          0.2862       3110.6587       1438.1135          1.0000          0.1702          1.9950          4.0000
 1490.2500          2.1684       6277.0024       2894.7209          0.2778       3159.5867       1457.0820          1.0000          0.1805          1.9867          4.0000
 1490.5000          2.1722       6326.1436       2912.3352          0.2855       3193.1445       1470.0120          1.0000          0.1686          1.9812          4.0000
 1490.7500          2.1725       6325.6963       2911.7161          0.2678       3192.3516       1469.4381          1.0000          0.2081          1.9815          4.0000
 1491.0000          2.1698       6279.8813       2894.2542          0.2566       3159.1899       1455.9978          1.0000          0.2362          1.9878          4.0000
 1491.2500          2.1675       6238.7905       2878.3064          0.2581       3129.3054       1443.7251          1.0000          0.2409          1.9937          4.0000
 1491.5000          2.1662       6215.0981       2869.0762          0.2706       3112.1462       1436.6602          1.0000          0.2270          1.9970          4.0000
 1491.7500          2.1627       6165.6191       2850.9438          0.2852       3078.0193       1423.2552          1.0000          0.1989          2.0031          4.0000
 1492.0000          2.1588       6116.5391       2833.3030          0.2826       3044.5728       1410.3064          1.0000          0.1975          2.0090          4.0000
 1492.2500          2.1564       6094.4995       2826.2134          0.2676       3030.5964       1405.3839          1.0000          0.2259          2.0110          4.0000
 1492.5000          2.1561       6105.0527       2831.5710          0.2737       3040.1182       1410.0306          1.0000          0.2190          2.0082          4.0000
 1492.7500          2.1552       6120.0112       2839.5994          0.2866       3054.1563       1417.0857          1.0000          0.2051          2.0038          4.0000
 1493.0000          2.1531       6122.5981       2843.5957          0.2934       3060.2151       1421.2947          1.0000          0.1805          2.0007          4.0000
 1493.2500          2.1501       6112.6875       2843.0051          0.2976       3057.2222       1421.9111          1.0000          0.1745          1.9994          4.0000
 1493.5000          2.1474       6103.0205       2842.1143          0.3078       3053.8391       1422.1418          1.0000          0.1415          1.9985          4.0000
 1493.7500          2.1502       6163.6113       2866.4614          0.3030       3098.3174       1440.9054          1.0000          0.1591          1.9894          4.0000
 1494.0000          2.1699       6457.2202       2975.4788          0.3107       3294.2483       1517.9128          1.0000          0.1393          1.9607          4.0000
 1494.2500          2.2098       7048.9780       3189.5225          0.3081       3675.7314       1663.1484          1.0000          0.1411          1.9180          4.0000
 1494.5000          2.2574       7748.8076       3431.8379          0.2729       4119.8784       1824.5417          1.0000          0.1728          1.8813          4.0000
 1494.7500          2.2995       8351.9375       3631.6555          0.2179       4498.3896       1955.9761          1.0000          0.1353          1.8569          4.0000
