~VERSION INFORMATION
 VERS.                          2.0   : CWLS LOG ASCII STANDARD - VERSION 2.0
 WRAP.                          NO    : ONE LINE PER DEPTH STEP
#
~Well Information Section
#MNEM     .UNIT     DATA                DESCRIPTION
#-----    -----     --------            --------------
 STRT     .M        1119.0000           : START DEPTH
 STOP     .M        2191.0000           : END DEPTH
 STEP     .M        0.2500              : INCREMENT DEPTH
 NULL     .         -999.2500           : NULL VALUE
 COMP     .                             :
 WELL     .         DD-2X               : WELL NAME
 EKB      .M        28.8000             : KELLY BUSHING ELEVATION
 EGL      .M        0.0000              : GROUND LEVEL ELEVATION
 FLD      .                              :
 LOC      . X = 452421.8000 Y = 1118910.9600: WELL LOCATION
 PROV     .                              :
 SRVC     .                              :
 PROV     .                              :
 DATE     .                              :
 UWI      .         Unknown              : UNIQUE WELL ID
 API      .                              :
#
~Curve Information Section
#MNEM     .UNIT               Curve #DESCRIPTION
#-----    -----               ----   --------------
 DEPTH    .M                  : 1     Name = Domain Curve - Type = DEPTH
 RHOB     .g/cm3              : 2     Name = Density - Type = Density
 UNKNOWN  .(m/s)*(g/cc)       : 3     Name = P-Impedance_trans - Type = P-Impedance
 DT       .m/s                : 4     Name = P-wave - Type = P-wave
 UNKNOWN  .v/v                : 5     Name = PHIE - Type = Porosity
 UNKNOWN  .(m/s)*(g/cc)       : 6     Name = S-Impedance_trans - Type = S-Impedance
 SDT      .m/s                : 7     Name = S-wave - Type = S-wave
 UNKNOWN  .0.Sw               : 8     Name = SW - Type = Water Saturation
 UNKNOWN  .fraction           : 9     Name = VWCL - Type = Volumetric
 UNKNOWN  .unitless           : 10    Name = VpVs_Ratio - Type = VpVs_Ratio
 UNKNOWN  .md                 : 11    Name = lithology - Type = lithology
~A (ASCII LOG DATA)
# ...
 1283.5000          2.1058       5164.5024       2452.4858          0.3298       2309.4272       1096.6859          0.9761          0.1178          2.2363          4.0000
 1283.7500          2.1082       5178.7598       2456.4622          0.3196       2317.4807       1099.2599          0.9245          0.1439          2.2347          4.0000
 1284.0000          2.1115       5191.9780       2458.9490          0.3079       2322.9807       1100.1765          0.8820          0.1948          2.2351          4.0000
 1284.2500          2.1138       5190.5879       2455.5559          0.3061       2316.3083       1095.7961          0.8088          0.2465          2.2409          4.0000
 1284.5000          2.1156       5183.4785       2450.1541          0.3082       2306.0435       1090.0332          0.8662          0.1993          2.2478          4.0000
 1284.7500          2.1171       5170.8486       2442.4585          0.3098       2291.3235       1082.3108          0.8834          0.1691          2.2567          4.0000
 1285.0000          2.1190       5162.5532       2436.3594          0.3073       2279.4124       1075.7214          0.9002          0.1522          2.2649          4.0000
 1285.2500          2.1196       5152.2397       2430.8044          0.2957       2268.6355       1070.3323          0.8976          0.2134          2.2711          4.0000
 1285.5000          2.1183       5138.4614       2425.7634          0.2963       2258.5686       1066.2244          0.8345          0.2282          2.2751          4.0000
 1285.7500          2.1171       5137.7075       2426.7471          0.3024       2260.4656       1067.7094          0.8356          0.2013          2.2729          4.0000
 1286.0000          2.1167       5144.0605       2430.2014          0.3170       2267.0496       1071.0192          0.8689          0.1268          2.2691          4.0000
 1286.2500          2.1160       5147.7119       2432.7280          0.3120       2271.9509       1073.6886          0.8530          0.1736          2.2658          4.0000
 1286.5000          2.1159       5159.7593       2438.5505          0.3025       2283.3130       1079.1149          0.8802          0.2368          2.2598          4.0000
 1286.7500          2.1170       5182.4966       2448.0859          0.3001       2302.2336       1087.5190          0.8129          0.2786          2.2511          4.0000
 1287.0000          2.1194       5208.3228       2457.4075          0.3033       2321.0574       1095.1282          0.8200          0.2385          2.2439          4.0000
 1287.2500          2.1217       5220.3091       2460.4260          0.3047       2327.2766       1096.8877          0.8589          0.1793          2.2431          4.0000
 1287.5000          2.1216       5207.9258       2454.6860          0.3033       2315.7727       1091.5083          0.8912          0.1735          2.2489          4.0000
 1287.7500          2.1213       5190.3931       2446.8545          0.2943       2300.2546       1084.3857          0.8883          0.2197          2.2564          4.0000
 1288.0000          2.1211       5172.2271       2438.5046          0.2991       2283.8679       1076.7550          0.9072          0.2112          2.2647          4.0000
 1288.2500          2.1203       5149.2197       2428.5120          0.3052       2263.9346       1067.7329          0.9054          0.2034          2.2745          4.0000
 1288.5000          2.1187       5119.9712       2416.5957          0.3012       2240.2786       1057.3977          0.8893          0.2245          2.2854          4.0000
 1288.7500          2.1174       5104.4316       2410.7190          0.3038       2228.5425       1052.4950          0.8738          0.2135          2.2905          4.0000
 1289.0000          2.1169       5096.2412       2407.4077          0.3043       2222.0066       1049.6512          0.8514          0.2234          2.2935          4.0000
 1289.2500          2.1169       5091.0723       2405.0105          0.3001       2217.2222       1047.4105          0.8728          0.2044          2.2961          4.0000
 1289.5000          2.1164       5087.9111       2404.0413          0.3000       2215.3423       1046.7506          0.9126          0.1840          2.2967          4.0000
 1289.7500          2.1156       5089.7349       2405.8562          0.3119       2218.9885       1048.8892          0.9450          0.1360          2.2937          4.0000
 1290.0000          2.1144       5096.5596       2410.4167          0.3155       2228.0522       1053.7570          0.9466          0.1357          2.2875          4.0000
 1290.2500          2.1125       5092.1816       2410.4915          0.3073       2227.9851       1054.6638          0.9172          0.1984          2.2856          4.0000
 1290.5000          2.1101       5086.5859       2410.5500          0.3098       2228.0552       1055.8828          0.9293          0.1901          2.2830          4.0000
 1290.7500          2.1085       5094.9653       2416.3640          0.3130       2239.4612       1062.0985          0.9293          0.1556          2.2751          4.0000
 1291.0000          2.1071       5107.1929       2423.7471          0.3242       2253.8135       1069.6042          0.9475          0.1127          2.2660          4.0000
 1291.2500          2.1065       5125.3491       2433.0571          0.3303       2272.1648       1078.6205          0.9480          0.0876          2.2557          4.0000
 1291.5000          2.1068       5140.7280       2440.0808          0.3221       2285.7229       1084.9336          0.9197          0.1604          2.2491          4.0000
 1291.7500          2.1082       5164.2949       2449.6563          0.3185       2304.6250       1093.1860          0.9281          0.1873          2.2409          4.0000
 1292.0000          2.1110       5204.7251       2465.5242          0.3141       2335.7717       1106.4747          0.9455          0.1555          2.2283          4.0000
 1292.2500          2.1140       5243.9502       2480.5979          0.3225       2365.6021       1119.0236          0.9682          0.0675          2.2168          4.0000
 1292.5000          2.1161       5265.4600       2488.3423          0.3168       2380.8135       1125.1208          0.9313          0.1011          2.2116          4.0000
 1292.7500          2.1174       5270.9175       2489.3655          0.2990       2383.2432       1125.5654          0.8626          0.2344          2.2117          4.0000
 1293.0000          2.1183       5281.0737       2493.0208          0.2986       2390.3945       1128.4261          0.8613          0.2464          2.2093          4.0000
 1293.2500          2.1194       5298.6143       2500.0002          0.3087       2403.9338       1134.2277          0.8565          0.2208          2.2041          4.0000
 1293.5000          2.1183       5285.4980       2495.2158          0.3085       2394.6506       1130.4829          0.8266          0.2333          2.2072          4.0000
 1293.7500          2.1153       5250.2754       2482.0066          0.3020       2368.4250       1119.6447          0.8561          0.2023          2.2168          4.0000
 1294.0000          2.1123       5223.9063       2473.1372          0.3083       2350.8760       1112.9674          0.8827          0.1566          2.2221          4.0000
 1294.2500          2.1096       5211.6685       2470.4861          0.3227       2345.3748       1111.7777          0.9065          0.1286          2.2221          4.0000
 1294.5000          2.1068       5198.6699       2467.5522          0.3318       2339.1855       1110.2958          0.9185          0.0829          2.2224          4.0000
 1294.7500          2.1033       5176.1025       2460.8987          0.3294       2325.9028       1105.8147          0.9238          0.0608          2.2254          4.0000
 1295.0000          2.1009       5165.0337       2458.5151          0.3270       2321.0308       1104.7924          0.9273          0.0598          2.2253          4.0000
