~VERSION INFORMATION
 VERS.                          2.0   : CWLS LOG ASCII STANDARD - VERSION 2.0
 WRAP.                          NO    : ONE LINE PER DEPTH STEP
#
~Well Information Section
#MNEM     .UNIT     DATA                DESCRIPTION
#-----    -----     --------            --------------
 STRT     .M        1119.0000           : START DEPTH
 STOP     .M        2191.0000           : END DEPTH
 STEP     .M        0.2500              : INCREMENT DEPTH
 NULL     .         -999.2500           : NULL VALUE
 COMP     .                             :
 WELL     .         DD-2X               : WELL NAME
 EKB      .M        28.8000             : KELLY BUSHING ELEVATION
 EGL      .M        0.0000              : GROUND LEVEL ELEVATION
 FLD      .                              :
 LOC      . X = 452421.8000 Y = 1118910.9600: WELL LOCATION
 PROV     .                              :
 SRVC     .                              :
 PROV     .                              :
 DATE     .                              :
 UWI      .         Unknown              : UNIQUE WELL ID
 API      .                              :
#
~Curve Information Section
#MNEM     .UNIT               Curve #DESCRIPTION
#-----    -----               ----   --------------
 DEPTH    .M                  : 1     Name = Domain Curve - Type = DEPTH
 RHOB     .g/cm3              : 2     Name = Density - Type = Density
 UNKNOWN  .(m/s)*(g/cc)       : 3     Name = P-Impedance_trans - Type = P-Impedance
 DT       .m/s                : 4     Name = P-wave - Type = P-wave
 UNKNOWN  .v/v                : 5     Name = PHIE - Type = Porosity
 UNKNOWN  .(m/s)*(g/cc)       : 6     Name = S-Impedance_trans - Type = S-Impedance
 SDT      .m/s                : 7     Name = S-wave - Type = S-wave
 UNKNOWN  .0.Sw               : 8     Name = SW - Type = Water Saturation
 UNKNOWN  .fraction           : 9     Name = VWCL - Type = Volumetric
 UNKNOWN  .unitless           : 10    Name = VpVs_Ratio - Type = VpVs_Ratio
 UNKNOWN  .md                 : 11    Name = lithology - Type = lithology
~A (ASCII LOG DATA)
# ...
 2129.5000       -999.2500       -999.2500       3074.3433         -0.4580       -999.2500       -999.2500          0.3445          0.3709       -999.2500          1.0000
 2129.7500       -999.2500       -999.2500       3046.9976         -0.3844       -999.2500       -999.2500          0.3816          0.3726       -999.2500          4.0000
 2130.0000       -999.2500       -999.2500       3073.0637          0.1159       -999.2500       -999.2500          0.3960          0.3081       -999.2500          4.0000
 2130.2500       -999.2500       -999.2500       3089.9233          0.1173       -999.2500       -999.2500          0.4341          0.2949       -999.2500          4.0000
 2130.5000       -999.2500       -999.2500       3574.1748          0.0845       -999.2500       -999.2500          0.3639          0.2477       -999.2500          4.0000
 2130.7500       -999.2500       -999.2500       4801.9824          0.0968       -999.2500       -999.2500          0.4545          0.1652       -999.2500          4.0000
 2131.0000       -999.2500       -999.2500       5026.3804          0.0709       -999.2500       -999.2500          0.5987          0.1230       -999.2500          4.0000
 2131.2500       -999.2500       -999.2500       4644.3950          0.0212       -999.2500       -999.2500          0.6500          0.0890       -999.2500          4.0000
 2131.5000       -999.2500       -999.2500       3524.9219          0.0132       -999.2500       -999.2500          0.6500          0.0669       -999.2500          4.0000
 2131.7500       -999.2500       -999.2500       3524.9219          0.0076       -999.2500       -999.2500          0.6500          0.1889       -999.2500          4.0000
 2132.0000       -999.2500       -999.2500       3524.9219         -0.0091       -999.2500       -999.2500          0.6500          0.2981       -999.2500          4.0000
 2132.2500       -999.2500       -999.2500       3524.9219         -0.0018       -999.2500       -999.2500          0.6500          0.2973       -999.2500          4.0000
 2132.5000       -999.2500       -999.2500       3524.9219          0.0612       -999.2500       -999.2500          0.6500          0.1767       -999.2500          4.0000
 2132.7500       -999.2500       -999.2500       3503.7759          0.1171       -999.2500       -999.2500          0.6500          0.1436       -999.2500          4.0000
 2133.0000       -999.2500       -999.2500       3404.6582          0.1174       -999.2500       -999.2500          0.6500          0.2362       -999.2500          4.0000
 2133.2500       -999.2500       -999.2500       3372.2498          0.1073       -999.2500       -999.2500          0.6406          0.2757       -999.2500          4.0000
 2133.5000       -999.2500       -999.2500       3346.2832          0.1191       -999.2500       -999.2500          0.5455          0.2682       -999.2500          4.0000
 2133.7500       -999.2500       -999.2500       3346.5095          0.1162       -999.2500       -999.2500          0.4092          0.2879       -999.2500          4.0000
 2134.0000       -999.2500       -999.2500       3391.7114          0.0920       -999.2500       -999.2500          0.3834          0.3058       -999.2500          4.0000
 2134.2500       -999.2500       -999.2500       3427.7202          0.0899       -999.2500       -999.2500          0.4254          0.3082       -999.2500          4.0000
 2134.5000       -999.2500       -999.2500       3441.1716          0.0403       -999.2500       -999.2500          0.6056          0.3183       -999.2500          4.0000
 2134.7500       -999.2500       -999.2500       3526.6079          0.1102       -999.2500       -999.2500          0.4817          0.2856       -999.2500          4.0000
 2135.0000       -999.2500       -999.2500       3565.9868          0.1266       -999.2500       -999.2500          0.3523          0.2668       -999.2500          4.0000
 2135.2500       -999.2500       -999.2500       3706.5098          0.1154       -999.2500       -999.2500          0.3922          0.2549       -999.2500          4.0000
 2135.5000       -999.2500       -999.2500       3807.8357          0.1051       -999.2500       -999.2500          0.5178          0.1967       -999.2500          4.0000
 2135.7500       -999.2500       -999.2500       3821.5938          0.1125       -999.2500       -999.2500          0.6500          0.1600       -999.2500          4.0000
 2136.0000       -999.2500       -999.2500       3889.4009          0.0998       -999.2500       -999.2500          0.6107          0.2027       -999.2500          4.0000
 2136.2500       -999.2500       -999.2500       4027.9089          0.1016       -999.2500       -999.2500          0.4938          0.1792       -999.2500          4.0000
 2136.5000       -999.2500       -999.2500       4192.9995          0.1326       -999.2500       -999.2500          0.5955          0.1330       -999.2500          4.0000
 2136.7500       -999.2500       -999.2500       4221.1221          0.1012       -999.2500       -999.2500          0.6500          0.1653       -999.2500          4.0000
 2137.0000       -999.2500       -999.2500       4321.5854          0.0819       -999.2500       -999.2500          0.6500          0.1701       -999.2500          4.0000
 2137.2500       -999.2500       -999.2500       4421.8560          0.0878       -999.2500       -999.2500          0.6500          0.1651       -999.2500          4.0000
 2137.5000       -999.2500       -999.2500       4483.0459          0.0693       -999.2500       -999.2500          0.6889          0.1741       -999.2500          4.0000
 2137.7500       -999.2500       -999.2500       4589.3936          0.0941       -999.2500       -999.2500          0.6715          0.1300       -999.2500          4.0000
 2138.0000       -999.2500       -999.2500       4642.2407          0.0963       -999.2500       -999.2500          0.6500          0.1202       -999.2500          4.0000
 2138.2500       -999.2500       -999.2500       4716.0620          0.0725       -999.2500       -999.2500          0.6500          0.1736       -999.2500          4.0000
 2138.5000       -999.2500       -999.2500       4866.3291          0.0547       -999.2500       -999.2500          0.6500          0.1505       -999.2500          4.0000
 2138.7500       -999.2500       -999.2500       4945.6401          0.0437       -999.2500       -999.2500          0.6500          0.1121       -999.2500          4.0000
 2139.0000       -999.2500       -999.2500       5049.8589          0.0488       -999.2500       -999.2500          0.6500          0.1010       -999.2500          4.0000
 2139.2500       -999.2500       -999.2500       5068.2095          0.0530       -999.2500       -999.2500          0.6500          0.0944       -999.2500          4.0000
 2139.5000       -999.2500       -999.2500       5062.8555          0.0499       -999.2500       -999.2500          0.6500          0.0813       -999.2500          4.0000
 2139.7500       -999.2500       -999.2500       5066.5830          0.0509       -999.2500       -999.2500          0.6500          0.0769       -999.2500          4.0000
 2140.0000       -999.2500       -999.2500       5174.6851          0.0513       -999.2500       -999.2500          0.6500          0.0871       -999.2500          4.0000
 2140.2500       -999.2500       -999.2500       5343.3452          0.0491       -999.2500       -999.2500          0.6500          0.0755       -999.2500          4.0000
 2140.5000       -999.2500       -999.2500       4993.4902          0.0388       -999.2500       -999.2500          0.6500          0.0947       -999.2500          4.0000
 2140.7500       -999.2500       -999.2500       4233.3076          0.0120       -999.2500       -999.2500          0.6500          0.1854       -999.2500          4.0000
 2141.0000       -999.2500       -999.2500       4050.1511          0.0083       -999.2500       -999.2500          0.6500          0.2301       -999.2500          4.0000
