~VERSION INFORMATION
 VERS.                          2.0   : CWLS LOG ASCII STANDARD - VERSION 2.0
 WRAP.                          NO    : ONE LINE PER DEPTH STEP
#
~Well Information Section
#MNEM     .UNIT     DATA                DESCRIPTION
#-----    -----     --------            --------------
 STRT     .M        1119.0000           : START DEPTH
 STOP     .M        2191.0000           : END DEPTH
 STEP     .M        0.2500              : INCREMENT DEPTH
 NULL     .         -999.2500           : NULL VALUE
 COMP     .                             :
 WELL     .         DD-2X               : WELL NAME
 EKB      .M        28.8000             : KELLY BUSHING ELEVATION
 EGL      .M        0.0000              : GROUND LEVEL ELEVATION
 FLD      .                              :
 LOC      . X = 452421.8000 Y = 1118910.9600: WELL LOCATION
 PROV     .                              :
 SRVC     .                              :
 PROV     .                              :
 DATE     .                              :
 UWI      .         Unknown              : UNIQUE WELL ID
 API      .                              :
#
~Curve Information Section
#MNEM     .UNIT               Curve #DESCRIPTION
#-----    -----               ----   --------------
 DEPTH    .M                  : 1     Name = Domain Curve - Type = DEPTH
 RHOB     .g/cm3              : 2     Name = Density - Type = Density
 UNKNOWN  .(m/s)*(g/cc)       : 3     Name = P-Impedance_trans - Type = P-Impedance
 DT       .m/s                : 4     Name = P-wave - Type = P-wave
 UNKNOWN  .v/v                : 5     Name = PHIE - Type = Porosity
 UNKNOWN  .(m/s)*(g/cc)       : 6     Name = S-Impedance_trans - Type = S-Impedance
 SDT      .m/s                : 7     Name = S-wave - Type = S-wave
 UNKNOWN  .0.Sw               : 8     Name = SW - Type = Water Saturation
 UNKNOWN  .fraction           : 9     Name = VWCL - Type = Volumetric
 UNKNOWN  .unitless           : 10    Name = VpVs_Ratio - Type = VpVs_Ratio
 UNKNOWN  .md                 : 11    Name = lithology - Type = lithology
~A (ASCII LOG DATA)
# ...
 1612.5000          2.5992      13447.2246       5173.5166          0.0934       7361.8413       2832.3015          0.7126          0.0985          1.8266          3.0000
 1612.7500          2.6027      13645.7637       5242.9219          0.0801       7489.7212       2877.6699          0.7991          0.0602          1.8219          3.0000
 1613.0000          2.6065      13853.4531       5314.9390          0.0673       7621.8623       2924.1604          0.9308          0.0479          1.8176          3.0000
 1613.2500          2.6123      14088.8018       5393.2378          0.0582       7760.7544       2970.8406          1.0000          0.0552          1.8154          3.0000
 1613.5000          2.6200      14347.9170       5476.2871          0.0570       7905.6289       3017.4065          0.9404          0.0640          1.8149          3.0000
 1613.7500          2.6263      14547.1885       5539.0776          0.0587       8014.5161       3051.6570          0.9708          0.0526          1.8151          3.0000
 1614.0000          2.6306      14678.7607       5579.9209          0.0542       8085.0620       3073.4207          1.0000          0.0703          1.8155          3.0000
 1614.2500          2.6316      14711.0166       5590.0869          0.0443       8102.5225       3078.9038          0.9336          0.0841          1.8156          3.0000
 1614.5000          2.6323      14739.0244       5599.3936          0.0469       8119.4053       3084.5830          0.8518          0.0617          1.8153          3.0000
 1614.7500          2.6335      14796.7900       5618.6367          0.0505       8154.1235       3096.2834          0.8682          0.0520          1.8146          3.0000
 1615.0000          2.6330      14810.6045       5625.0728          0.0569       8169.1206       3102.6353          0.9872          0.0489          1.8130          3.0000
 1615.2500          2.6296      14773.7930       5618.2148          0.0582       8165.2642       3105.1084          1.0000          0.0481          1.8093          3.0000
 1615.5000          2.6257      14732.9648       5611.1631          0.0531       8159.8560       3107.7456          1.0000          0.0535          1.8055          3.0000
 1615.7500          2.6217      14710.4922       5611.0806          0.0530       8169.3979       3116.0867          0.9982          0.0485          1.8007          3.0000
 1616.0000          2.6180      14691.5400       5611.8013          0.0558       8178.9468       3124.1545          0.9042          0.0455          1.7963          3.0000
 1616.2500          2.6142      14673.7783       5613.0137          0.0551       8190.3955       3132.9915          0.9780          0.0428          1.7916          3.0000
 1616.5000          2.6127      14697.1543       5625.2563          0.0553       8220.8496       3146.4858          1.0000          0.0330          1.7878          3.0000
 1616.7500          2.6130      14782.4141       5657.1826          0.0562       8282.8213       3169.8091          0.9500          0.0260          1.7847          3.0000
 1617.0000          2.6137      14847.0518       5680.5610          0.0518       8328.0977       3186.3743          0.9661          0.0207          1.7828          3.0000
 1617.2500          2.6145      14911.5664       5703.4668          0.0473       8372.7344       3202.4541          1.0000          0.0234          1.7810          3.0000
 1617.5000          2.6155      14959.2695       5719.5190          0.0521       8403.1182       3212.8438          1.0000          0.0173          1.7802          3.0000
 1617.7500          2.6140      14929.5469       5711.3633          0.0530       8388.7959       3209.1709          1.0000          0.0067          1.7797          3.0000
 1618.0000          2.6077      14749.7705       5656.2607          0.0517       8290.9590       3179.4277          1.0000          0.0029          1.7790          3.0000
 1618.2500          2.6012      14538.5361       5589.1431          0.0546       8169.8354       3140.7817          1.0000          0.0028          1.7795          3.0000
 1618.5000          2.5989      14399.4111       5540.5220          0.0613       8078.2271       3108.2932          1.0000          0.0131          1.7825          3.0000
 1618.7500          2.5997      14309.9434       5504.4727          0.0726       8004.9287       3079.1819          1.0000          0.0503          1.7876          3.0000
 1619.0000          2.6016      14239.5127       5473.3120          0.0691       7938.9355       3051.5293          1.0000          0.0808          1.7936          3.0000
 1619.2500          2.6038      14199.0615       5453.2705          0.0540       7895.1382       3032.1958          1.0000          0.0991          1.7985          3.0000
 1619.5000          2.6045      14114.8271       5419.3999          0.0486       7828.7583       3005.8584          1.0000          0.1142          1.8029          3.0000
 1619.7500          2.6043      14053.4453       5396.2769          0.0440       7783.1265       2988.5842          1.0000          0.1294          1.8056          3.0000
 1620.0000          2.6023      13956.8252       5363.2422          0.0509       7722.5508       2967.5737          1.0000          0.1101          1.8073          3.0000
 1620.2500          2.5966      13789.0029       5310.4614          0.0764       7630.4717       2938.6707          1.0000          0.0692          1.8071          3.0000
 1620.5000          2.5884      13572.4854       5243.5308          0.0757       7516.2051       2903.7766          1.0000          0.0764          1.8058          3.0000
 1620.7500          2.5795      13336.9668       5170.3145          0.0734       7391.4136       2865.4148          1.0000          0.0887          1.8044          3.0000
 1621.0000          2.5718      13127.2129       5104.2202          0.0764       7275.0811       2828.7510          0.9825          0.0954          1.8044          3.0000
 1621.2500          2.5679      13006.6826       5065.1201          0.0825       7205.8760       2806.1438          0.9138          0.1164          1.8050          3.0000
 1621.5000          2.5660      12936.7139       5041.6382          0.0878       7163.6313       2791.7783          0.8720          0.1151          1.8059          3.0000
 1621.7500          2.5640      12874.7393       5021.3340          0.0921       7126.8389       2779.5701          0.9908          0.1017          1.8065          3.0000
 1622.0000          2.5598      12768.1631       4987.9653          0.0826       7068.2900       2761.2732          1.0000          0.1100          1.8064          3.0000
 1622.2500          2.5559      12677.0645       4959.9370          0.0748       7019.4082       2746.3628          0.8960          0.1271          1.8060          3.0000
 1622.5000          2.5577      12730.4443       4977.2085          0.0893       7050.3545       2756.4695          0.7035          0.1012          1.8056          3.0000
 1622.7500          2.5587      12776.2256       4993.2041          0.1066       7079.1211       2766.6621          0.6813          0.0885          1.8048          3.0000
 1623.0000          2.5524      12669.4639       4963.6968          0.0985       7028.2637       2753.5654          0.7691          0.0902          1.8026          3.0000
 1623.2500          2.5437      12516.2031       4920.5479          0.0778       6954.8604       2734.1951          0.8006          0.1129          1.7996          3.0000
 1623.5000          2.5423      12519.7871       4924.5093          0.0951       6964.0298       2739.2180          0.9942          0.0779          1.7978          3.0000
 1623.7500          2.5489      12711.8203       4987.2202          0.1085       7074.7666       2775.6387          0.8354          0.0706          1.7968          3.0000
 1624.0000          2.5565      12901.2852       5046.4741          0.1049       7174.1509       2806.2471          0.7816          0.0629          1.7983          3.0000
