~VERSION INFORMATION
 VERS.                          2.0   : CWLS LOG ASCII STANDARD - VERSION 2.0
 WRAP.                          NO    : ONE LINE PER DEPTH STEP
#
~Well Information Section
#MNEM     .UNIT     DATA                DESCRIPTION
#-----    -----     --------            --------------
 STRT     .M        1119.0000           : START DEPTH
 STOP     .M        2191.0000           : END DEPTH
 STEP     .M        0.2500              : INCREMENT DEPTH
 NULL     .         -999.2500           : NULL VALUE
 COMP     .                             :
 WELL     .         DD-2X               : WELL NAME
 EKB      .M        28.8000             : KELLY BUSHING ELEVATION
 EGL      .M        0.0000              : GROUND LEVEL ELEVATION
 FLD      .                              :
 LOC      . X = 452421.8000 Y = 1118910.9600: WELL LOCATION
 PROV     .                              :
 SRVC     .                              :
 PROV     .                              :
 DATE     .                              :
 UWI      .         Unknown              : UNIQUE WELL ID
 API      .                              :
#
~Curve Information Section
#MNEM     .UNIT               Curve #DESCRIPTION
#-----    -----               ----   --------------
 DEPTH    .M                  : 1     Name = Domain Curve - Type = DEPTH
 RHOB     .g/cm3              : 2     Name = Density - Type = Density
 UNKNOWN  .(m/s)*(g/cc)       : 3     Name = P-Impedance_trans - Type = P-Impedance
 DT       .m/s                : 4     Name = P-wave - Type = P-wave
 UNKNOWN  .v/v                : 5     Name = PHIE - Type = Porosity
 UNKNOWN  .(m/s)*(g/cc)       : 6     Name = S-Impedance_trans - Type = S-Impedance
 SDT      .m/s                : 7     Name = S-wave - Type = S-wave
 UNKNOWN  .0.Sw               : 8     Name = SW - Type = Water Saturation
 UNKNOWN  .fraction           : 9     Name = VWCL - Type = Volumetric
 UNKNOWN  .unitless           : 10    Name = VpVs_Ratio - Type = VpVs_Ratio
 UNKNOWN  .md                 : 11    Name = lithology - Type = lithology
~A (ASCII LOG DATA)
# ...
 1741.7500          2.3567       6898.0435       2926.6040          0.0001       3186.4470       1351.8079          1.0000          0.8605          2.1664          1.0000
 1742.0000          2.3289       6293.6538       2702.2974          0.0001       2780.5894       1193.8538          1.0000          0.9085          2.2644          1.0000
 1742.2500          2.3193       6080.8267       2621.8445          0.0001       2629.2461       1133.6356          1.0000          0.9138          2.3129          1.0000
 1742.5000          2.3212       6078.0083       2618.4878          0.0001       2622.4863       1129.8007          1.0000          0.9362          2.3177          1.0000
 1742.7500          2.3349       6299.1665       2697.6794          0.0001       2779.3770       1190.2401          1.0000          0.9567          2.2675          1.0000
 1743.0000          2.3554       6694.2676       2841.9927          0.0001       3060.1023       1299.1047          1.0000          0.9929          2.1883          1.0000
 1743.2500          2.3859       7405.2144       3103.3032          0.0063       3550.3291       1487.7478          1.0000          0.8063          2.0872          1.0000
 1743.5000          2.4080       7992.8550       3319.0659          0.0997       3958.6963       1643.8242          0.9307          0.4414          2.0197          4.0000
 1743.7500          2.4190       8396.5049       3471.1040          0.1025       4261.2104       1761.5712          1.0000          0.2946          1.9707          4.0000
 1744.0000          2.4196       8592.6631       3551.2461          0.0608       4426.1323       1829.2700          0.9946          0.2854          1.9414          4.0000
 1744.2500          2.4161       8689.8232       3596.6567          0.0783       4519.0063       1870.3892          1.0000          0.3072          1.9230          4.0000
 1744.5000          2.4101       8703.7012       3611.4065          0.1364       4549.1367       1887.5645          0.9427          0.3014          1.9133          4.0000
 1744.7500          2.3907       8445.0928       3532.3792          0.1653       4406.5132       1843.1281          0.7431          0.2689          1.9166          4.0000
 1745.0000          2.3678       8075.1348       3410.2463          0.1572       4188.7563       1768.9553          0.7314          0.3064          1.9279          4.0000
 1745.2500          2.3489       7789.4937       3316.1680          0.1384       4016.7778       1710.0354          0.8172          0.3220          1.9392          4.0000
 1745.5000          2.3478       7800.7402       3322.5063          0.1481       4028.6433       1715.8835          0.8932          0.2537          1.9364          4.0000
 1745.7500          2.3575       7997.7900       3392.4697          0.1751       4160.6162       1764.8241          0.8903          0.1584          1.9223          4.0000
 1746.0000          2.3749       8338.2588       3510.9326          0.1880       4379.2734       1843.9354          0.9023          0.1020          1.9041          4.0000
 1746.2500          2.3943       8725.0762       3643.8904          0.1629       4620.0322       1929.4661          0.9295          0.1571          1.8886          4.0000
 1746.5000          2.4185       9203.8398       3805.3411          0.1219       4914.9712       2032.0748          0.8785          0.2263          1.8728          4.0000
 1746.7500          2.4456       9737.6514       3981.6753          0.0906       5247.5317       2145.6785          0.9979          0.2342          1.8557          3.0000
 1747.0000          2.4582       9988.3389       4063.1946          0.0823       5407.5483       2199.7537          1.0000          0.1774          1.8471          3.0000
 1747.2500          2.4571       9963.2188       4054.9370          0.0860       5390.7373       2193.9788          1.0000          0.0815          1.8482          3.0000
 1747.5000          2.4423       9646.8066       3949.7566          0.1092       5184.8740       2122.8621          1.0000          0.0497          1.8607          3.0000
 1747.7500          2.4263       9277.1523       3823.5178          0.1482       4944.9116       2037.9941          1.0000          0.0701          1.8762          4.0000
 1748.0000          2.4086       8802.2959       3654.4177          0.1709       4635.8276       1924.6274          0.9843          0.1515          1.8989          4.0000
 1748.2500          2.3980       8438.2910       3518.7744          0.1527       4390.4346       1830.8013          0.9342          0.2992          1.9222          4.0000
 1748.5000          2.3929       8158.9780       3409.6685          0.1188       4188.4854       1750.3834          0.9769          0.4334          1.9480          1.0000
 1748.7500          2.3926       8010.9844       3348.1714          0.0192       4070.3145       1701.1781          1.0000          0.6374          1.9682          1.0000
 1749.0000          2.3911       7892.5752       3300.8157          0.0034       3976.4814       1663.0339          1.0000          0.7199          1.9848          1.0000
 1749.2500          2.3879       7812.2681       3271.5862          0.0017       3919.2661       1641.2913          1.0000          0.7538          1.9933          1.0000
 1749.5000          2.3803       7733.4922       3248.9065          0.0008       3876.4548       1628.5325          1.0000          0.7779          1.9950          1.0000
 1749.7500          2.3671       7635.2832       3225.5215          0.0237       3836.2905       1620.6461          1.0000          0.6501          1.9903          1.0000
 1750.0000          2.3511       7537.3901       3205.9099          0.1151       3801.7432       1617.0135          0.8234          0.5061          1.9826          1.0000
 1750.2500          2.3373       7504.1372       3210.6458          0.0737       3813.2620       1631.5111          0.9643          0.5442          1.9679          1.0000
 1750.5000          2.3326       7570.1909       3245.3804          0.1506       3880.0603       1663.4042          0.7451          0.3392          1.9511          4.0000
 1750.7500          2.3301       7666.8447       3290.4255          0.2030       3965.4919       1701.8956          0.7782          0.0573          1.9334          4.0000
 1751.0000          2.3278       7719.1440       3316.0437          0.2104       4013.9121       1724.3251          0.7518          0.0394          1.9231          4.0000
 1751.2500          2.3273       7750.4038       3330.2629          0.1968       4040.6086       1736.2047          0.7801          0.1023          1.9181          4.0000
 1751.5000          2.3301       7796.3794       3345.9888          0.1897       4070.2595       1746.8412          0.8130          0.1380          1.9155          4.0000
 1751.7500          2.3417       7960.6382       3399.4045          0.1784       4170.9468       1781.0988          0.7551          0.1718          1.9086          4.0000
 1752.0000          2.3572       8188.9414       3473.9905          0.1689       4310.9707       1828.8317          0.7660          0.1782          1.8996          4.0000
 1752.2500          2.3748       8449.5498       3557.9453          0.1718       4469.8809       1882.1807          0.8361          0.1370          1.8903          4.0000
 1752.5000          2.3816       8537.2861       3584.7397          0.1310       4522.3242       1898.8883          0.8890          0.2631          1.8878          4.0000
 1752.7500          2.3823       8538.4297       3584.1116          0.1031       4521.6089       1898.0013          0.9200          0.3521          1.8884          4.0000
 1753.0000          2.3808       8529.8018       3582.7729          0.1274       4518.3306       1897.8347          0.7960          0.2947          1.8878          4.0000
 1753.2500          2.3777       8505.6348       3577.2026          0.1621       4507.3613       1895.6539          0.8451          0.1986          1.8871          4.0000
