~VERSION INFORMATION
 VERS.                          2.0   : CWLS LOG ASCII STANDARD - VERSION 2.0
 WRAP.                          NO    : ONE LINE PER DEPTH STEP
#
~Well Information Section
#MNEM     .UNIT     DATA                DESCRIPTION
#-----    -----     --------            --------------
 STRT     .M        1119.0000           : START DEPTH
 STOP     .M        2191.0000           : END DEPTH
 STEP     .M        0.2500              : INCREMENT DEPTH
 NULL     .         -999.2500           : NULL VALUE
 COMP     .                             :
 WELL     .         DD-2X               : WELL NAME
 EKB      .M        28.8000             : KELLY BUSHING ELEVATION
 EGL      .M        0.0000              : GROUND LEVEL ELEVATION
 FLD      .                              :
 LOC      . X = 452421.8000 Y = 1118910.9600: WELL LOCATION
 PROV     .                              :
 SRVC     .                              :
 PROV     .                              :
 DATE     .                              :
 UWI      .         Unknown              : UNIQUE WELL ID
 API      .                              :
#
~Curve Information Section
#MNEM     .UNIT               Curve #DESCRIPTION
#-----    -----               ----   --------------
 DEPTH    .M                  : 1     Name = Domain Curve - Type = DEPTH
 RHOB     .g/cm3              : 2     Name = Density - Type = Density
 UNKNOWN  .(m/s)*(g/cc)       : 3     Name = P-Impedance_trans - Type = P-Impedance
 DT       .m/s                : 4     Name = P-wave - Type = P-wave
 UNKNOWN  .v/v                : 5     Name = PHIE - Type = Porosity
 UNKNOWN  .(m/s)*(g/cc)       : 6     Name = S-Impedance_trans - Type = S-Impedance
 SDT      .m/s                : 7     Name = S-wave - Type = S-wave
 UNKNOWN  .0.Sw               : 8     Name = SW - Type = Water Saturation
 UNKNOWN  .fraction           : 9     Name = VWCL - Type = Volumetric
 UNKNOWN  .unitless           : 10    Name = VpVs_Ratio - Type = VpVs_Ratio
 UNKNOWN  .md                 : 11    Name = lithology - Type = lithology
~A (ASCII LOG DATA)
# ...
 1154.2500       -999.2500       -999.2500       2375.7781       -999.2500       -999.2500       1160.1522          0.6500       -999.2500          2.0479          4.0000
 1154.5000       -999.2500       -999.2500       2398.2075       -999.2500       -999.2500       1134.9215          0.6500       -999.2500          2.1132          4.0000
 1154.7500       -999.2500       -999.2500       2403.0466          0.2345       -999.2500       1117.3157          0.8846          0.2406          2.1508          4.0000
 1155.0000       -999.2500       -999.2500       2476.7068          0.2912       -999.2500       1094.9961          1.0000          0.3227          2.2622          4.0000
 1155.2500       -999.2500       -999.2500       2542.4727          0.3026       -999.2500       1099.3667          0.9961          0.2963          2.3127          4.0000
 1155.5000       -999.2500       -999.2500       2596.2085          0.3240       -999.2500       1122.9358          0.9131          0.2466          2.3120          4.0000
 1155.7500       -999.2500       -999.2500       2639.9326          0.3143       -999.2500       1145.7452          0.8420          0.2690          2.3045          4.0000
 1156.0000       -999.2500       -999.2500       2761.9778          0.3108       -999.2500       1094.6497          0.8347          0.2772          2.5252          4.0000
 1156.2500       -999.2500       -999.2500       2833.5291          0.2881       -999.2500       1042.3524          0.8430          0.3300          2.7192          4.0000
 1156.5000       -999.2500       -999.2500       2767.1902          0.2854       -999.2500        970.1464          0.7816          0.3362          2.8525          4.0000
 1156.7500       -999.2500       -999.2500       2700.7048          0.2782       -999.2500        943.3558          0.8181          0.3360          2.8631          1.0000
 1157.0000       -999.2500       -999.2500       2650.7700          0.0899       -999.2500        911.8215          1.0000          0.5656          2.9071          1.0000
 1157.2500       -999.2500       -999.2500       2574.5308          0.0019       -999.2500        927.4250          1.0000          0.7534          2.7763          1.0000
 1157.5000       -999.2500       -999.2500       2551.3723          0.0005       -999.2500        932.8871          1.0000          0.7965          2.7351          1.0000
 1157.7500       -999.2500       -999.2500       2529.7080          0.0003       -999.2500        910.0649          1.0000          0.8179          2.7797          1.0000
 1158.0000       -999.2500       -999.2500       2550.9482          0.0002       -999.2500        916.1720          1.0000          0.8495          2.7850          1.0000
 1158.2500       -999.2500       -999.2500       2567.4995          0.0001       -999.2500        953.1938          1.0000          0.8973          2.6937          1.0000
 1158.5000       -999.2500       -999.2500       2568.7793          0.0001       -999.2500        996.8468          1.0000          0.9259          2.5793          1.0000
 1158.7500       -999.2500       -999.2500       2553.3379          0.0001       -999.2500       1063.0916          1.0000          0.9931          2.4028          1.0000
 1159.0000       -999.2500       -999.2500       2523.4719          0.0001       -999.2500       1079.2225          1.0000          0.9811          2.3384          1.0000
 1159.2500       -999.2500       -999.2500       2486.5637          0.0002       -999.2500       1103.6754          1.0000          0.8591          2.2535          1.0000
 1159.5000       -999.2500       -999.2500       2470.0522          0.0002       -999.2500       1139.1833          1.0000          0.8293          2.1685          1.0000
 1159.7500       -999.2500       -999.2500       2445.5220          0.0001       -999.2500       1160.1677          1.0000          0.8830          2.1079          1.0000
 1160.0000       -999.2500       -999.2500       2447.9126          0.0003       -999.2500       1204.5443          1.0000          0.8140          2.0365          2.0000
 1160.2500       -999.2500       -999.2500       2539.7905          0.0003       -999.2500       1192.3933          0.9865          0.8201          2.1358          2.0000
 1160.5000       -999.2500       -999.2500       2864.9119          0.0002       -999.2500       1268.5271          0.8349          0.8617          2.2618          2.0000
 1160.7500       -999.2500       -999.2500       2913.1211          0.0001       -999.2500       1400.6586          0.5385          0.8924          2.0806          2.0000
 1161.0000       -999.2500       -999.2500       2917.2244          0.0891       -999.2500       1427.2272          0.5970          0.6130          2.0440          2.0000
 1161.2500       -999.2500       -999.2500       2879.1853          0.2441       -999.2500       1409.2263          0.8601          0.3776          2.0431          4.0000
 1161.5000       -999.2500       -999.2500       2820.5518          0.1305       -999.2500       1377.7081          0.9796          0.4854          2.0480          1.0000
 1161.7500       -999.2500       -999.2500       2724.7988          0.1220       -999.2500       1293.2306          0.9968          0.4995          2.1070          4.0000
 1162.0000       -999.2500       -999.2500       2648.2888          0.3381       -999.2500       1239.7332          0.8214          0.2137          2.1377          4.0000
 1162.2500       -999.2500       -999.2500       2619.9824          0.2888       -999.2500       1170.5291          0.8226          0.3131          2.2386          1.0000
 1162.5000       -999.2500       -999.2500       2589.0256          0.2150       -999.2500       1134.4403          0.8172          0.4370          2.2822          1.0000
 1162.7500       -999.2500       -999.2500       2582.9407          0.3030       -999.2500       1120.4882          0.7418          0.2654          2.3052          4.0000
 1163.0000       -999.2500       -999.2500       2569.6240          0.3486       -999.2500       1102.3824          0.7793          0.1086          2.3313          4.0000
 1163.2500       -999.2500       -999.2500       2563.9302          0.3473       -999.2500       1071.6685          0.7733          0.1388          2.3925          4.0000
 1163.5000       -999.2500       -999.2500       2565.5515          0.3155       -999.2500       1067.2379          0.7670          0.2636          2.4039          4.0000
 1163.7500       -999.2500       -999.2500       2573.0874          0.3091       -999.2500       1061.1561          0.7656          0.2812          2.4248          4.0000
 1164.0000       -999.2500       -999.2500       2580.3892          0.3219       -999.2500       1064.0635          0.7550          0.2480          2.4251          4.0000
 1164.2500       -999.2500       -999.2500       2578.8711          0.3376       -999.2500       1064.2354          0.7905          0.1778          2.4232          4.0000
 1164.5000       -999.2500       -999.2500       2576.1753          0.3455       -999.2500       1063.9905          0.7982          0.1139          2.4213          4.0000
 1164.7500       -999.2500       -999.2500       2582.4224          0.3446       -999.2500       1054.2682          0.8074          0.1445          2.4495          4.0000
 1165.0000       -999.2500       -999.2500       2589.8989          0.3545       -999.2500       1054.2505          0.8242          0.1501          2.4566          4.0000
 1165.2500          2.0574       5333.9263       2592.5159          0.3605       2189.9956       1064.4255          0.8164          0.1115          2.4357          4.0000
 1165.5000          2.0676       5374.9150       2599.5942          0.3330       2212.4133       1070.0398          0.7906          0.1946          2.4295          4.0000
 1165.7500          2.0686       5402.8091       2611.8694          0.3136       2246.7224       1086.1255          0.8067          0.2706          2.4049          4.0000
