~VERSION INFORMATION
 VERS.                          2.0   : CWLS LOG ASCII STANDARD - VERSION 2.0
 WRAP.                          NO    : ONE LINE PER DEPTH STEP
#
~Well Information Section
#MNEM     .UNIT     DATA                DESCRIPTION
#-----    -----     --------            --------------
 STRT     .M        1119.0000           : START DEPTH
 STOP     .M        2191.0000           : END DEPTH
 STEP     .M        0.2500              : INCREMENT DEPTH
 NULL     .         -999.2500           : NULL VALUE
 COMP     .                             :
 WELL     .         DD-2X               : WELL NAME
 EKB      .M        28.8000             : KELLY BUSHING ELEVATION
 EGL      .M        0.0000              : GROUND LEVEL ELEVATION
 FLD      .                              :
 LOC      . X = 452421.8000 Y = 1118910.9600: WELL LOCATION
 PROV     .                              :
 SRVC     .                              :
 PROV     .                              :
 DATE     .                              :
 UWI      .         Unknown              : UNIQUE WELL ID
 API      .                              :
#
~Curve Information Section
#MNEM     .UNIT               Curve #DESCRIPTION
#-----    -----               ----   --------------
 DEPTH    .M                  : 1     Name = Domain Curve - Type = DEPTH
 RHOB     .g/cm3              : 2     Name = Density - Type = Density
 UNKNOWN  .(m/s)*(g/cc)       : 3     Name = P-Impedance_trans - Type = P-Impedance
 DT       .m/s                : 4     Name = P-wave - Type = P-wave
 UNKNOWN  .v/v                : 5     Name = PHIE - Type = Porosity
 UNKNOWN  .(m/s)*(g/cc)       : 6     Name = S-Impedance_trans - Type = S-Impedance
 SDT      .m/s                : 7     Name = S-wave - Type = S-wave
 UNKNOWN  .0.Sw               : 8     Name = SW - Type = Water Saturation
 UNKNOWN  .fraction           : 9     Name = VWCL - Type = Volumetric
 UNKNOWN  .unitless           : 10    Name = VpVs_Ratio - Type = VpVs_Ratio
 UNKNOWN  .md                 : 11    Name = lithology - Type = lithology
~A (ASCII LOG DATA)
# ...
 1354.0000          2.1229       5241.7920       2469.1216          0.2931       2347.0093       1105.5472          0.9458          0.2448          2.2334          4.0000
 1354.2500          2.1251       5277.3525       2483.3032          0.3157       2374.9104       1117.5333          0.9778          0.1388          2.2221          4.0000
 1354.5000          2.1270       5302.2544       2492.7893          0.3265       2393.6060       1125.3241          0.9722          0.0849          2.2152          4.0000
 1354.7500          2.1280       5309.2388       2494.9448          0.3120       2397.8389       1126.8048          0.9752          0.1413          2.2142          4.0000
 1355.0000          2.1279       5305.1597       2493.0869          0.2872       2394.3079       1125.1720          0.9484          0.2524          2.2157          4.0000
 1355.2500          2.1285       5308.5010       2494.0032          0.2857       2396.2793       1125.8032          0.9515          0.2619          2.2153          4.0000
 1355.5000          2.1294       5319.5454       2498.1064          0.2843       2404.4380       1129.1455          0.9456          0.2662          2.2124          4.0000
 1355.7500          2.1283       5310.6914       2495.2620          0.2973       2398.5613       1126.9790          0.9935          0.2136          2.2141          4.0000
 1356.0000          2.1249       5277.1831       2483.4395          0.3051       2375.0986       1117.7195          0.9679          0.1893          2.2219          4.0000
 1356.2500          2.1225       5255.2061       2475.9360          0.3069       2360.3262       1112.0432          0.9765          0.1837          2.2265          4.0000
 1356.5000          2.1211       5243.1152       2471.8755          0.3182       2352.1685       1108.9337          0.9877          0.1441          2.2291          4.0000
 1356.7500          2.1195       5221.6675       2463.6284          0.3114       2335.7830       1102.0425          0.9506          0.1780          2.2355          4.0000
 1357.0000          2.1173       5188.7891       2450.6511          0.3002       2310.1909       1091.0962          0.9353          0.2158          2.2461          4.0000
 1357.2500          2.1164       5171.2534       2443.3633          0.2852       2295.8313       1084.7565          0.9039          0.2786          2.2525          4.0000
 1357.5000          2.1178       5182.2876       2447.0081          0.2902       2303.1897       1087.5355          0.9112          0.2647          2.2501          4.0000
 1357.7500          2.1195       5202.1934       2454.4929          0.2910       2317.8787       1093.6187          0.9289          0.2703          2.2444          4.0000
 1358.0000          2.1212       5221.6582       2461.6943          0.2849       2331.9563       1099.3755          0.9292          0.2964          2.2392          4.0000
 1358.2500          2.1232       5246.1157       2470.8186          0.2879       2350.2065       1106.9004          0.9353          0.2767          2.2322          4.0000
 1358.5000          2.1262       5284.4556       2485.3518          0.2941       2379.1411       1118.9421          0.9417          0.2409          2.2212          4.0000
 1358.7500          2.1279       5308.3394       2494.6279          0.3078       2397.4746       1126.6813          0.9556          0.1656          2.2141          4.0000
 1359.0000          2.1287       5323.2373       2500.6733          0.3140       2409.4258       1131.8650          0.9733          0.1440          2.2093          4.0000
 1359.2500          2.1300       5337.2671       2505.7529          0.2953       2419.4714       1135.8990          0.9950          0.2190          2.2060          4.0000
 1359.5000          2.1328       5365.2192       2515.6321          0.2920       2438.8330       1143.5142          1.0000          0.2306          2.1999          4.0000
 1359.7500          2.1366       5407.7153       2530.9351          0.3170       2468.8943       1155.4968          1.0000          0.1085          2.1904          4.0000
 1360.0000          2.1424       5468.1636       2552.3101          0.3126       2510.8064       1171.9380          1.0000          0.1083          2.1779          4.0000
 1360.2500          2.1509       5557.4595       2583.7322          0.2982       2572.4377       1195.9540          0.9949          0.1772          2.1604          4.0000
 1360.5000          2.1573       5616.0088       2603.3105          0.2749       2611.4019       1210.5189          0.9517          0.2530          2.1506          4.0000
 1360.7500          2.1621       5652.7031       2614.4727          0.2711       2633.7903       1218.1731          0.9484          0.2338          2.1462          4.0000
 1361.0000          2.1643       5666.2124       2618.0352          0.2735       2641.2085       1220.3525          0.9350          0.2142          2.1453          4.0000
 1361.2500          2.1650       5665.5420       2616.8850          0.2650       2639.0918       1218.9830          0.9651          0.2611          2.1468          4.0000
 1361.5000          2.1644       5653.8911       2612.2056          0.2697       2629.9365       1215.0807          0.9511          0.2581          2.1498          4.0000
 1361.7500          2.1611       5610.2354       2595.9561          0.2785       2598.3970       1202.3229          0.9671          0.2328          2.1591          4.0000
 1362.0000          2.1570       5554.5859       2575.1870          0.2843       2557.5742       1185.7267          0.9952          0.2034          2.1718          4.0000
 1362.2500          2.1523       5493.2402       2552.3015          0.2855       2512.2285       1167.2457          0.9457          0.1996          2.1866          4.0000
 1362.5000          2.1497       5452.3750       2536.3896          0.2793       2480.8794       1154.0787          0.9215          0.2385          2.1978          4.0000
 1362.7500          2.1476       5410.4038       2519.3049          0.2764       2447.2383       1139.5336          0.9480          0.2609          2.2108          4.0000
 1363.0000          2.1447       5350.6719       2494.7876          0.2628       2398.8171       1118.4626          0.9441          0.3137          2.2306          4.0000
 1363.2500          2.1419       5295.3921       2472.3132          0.2641       2354.7739       1099.3960          0.9508          0.2911          2.2488          4.0000
 1363.5000          2.1394       5250.4478       2454.2002          0.2790       2318.7822       1083.8601          0.9791          0.2228          2.2643          4.0000
 1363.7500          2.1378       5214.3442       2439.0657          0.2873       2288.3596       1070.4047          0.9833          0.1927          2.2787          4.0000
 1364.0000          2.1383       5196.8779       2430.3586          0.2811       2270.6772       1061.8994          0.9747          0.2110          2.2887          4.0000
 1364.2500          2.1414       5212.2451       2434.0151          0.2691       2278.1526       1063.8516          0.9773          0.2617          2.2879          4.0000
 1364.5000          2.1509       5313.9873       2470.5808          0.2744       2348.7666       1091.9778          0.9260          0.2570          2.2626          4.0000
 1364.7500          2.1605       5424.1846       2510.6270          0.2827       2426.7507       1123.2355          0.9312          0.2207          2.2352          4.0000
 1365.0000          2.1669       5497.0005       2536.7495          0.2545       2478.7056       1143.8693          0.9898          0.3092          2.2177          4.0000
 1365.2500          2.1704       5550.4517       2557.3577          0.2361       2520.3992       1161.2637          0.7643          0.3732          2.2023          4.0000
 1365.5000          2.1765       5669.1655       2604.7563          0.2471       2614.1577       1201.0945          0.8880          0.3026          2.1688          4.0000
