~VERSION INFORMATION
 VERS.                          2.0   : CWLS LOG ASCII STANDARD - VERSION 2.0
 WRAP.                          NO    : ONE LINE PER DEPTH STEP
#
~Well Information Section
#MNEM     .UNIT     DATA                DESCRIPTION
#-----    -----     --------            --------------
 STRT     .M        1119.0000           : START DEPTH
 STOP     .M        2191.0000           : END DEPTH
 STEP     .M        0.2500              : INCREMENT DEPTH
 NULL     .         -999.2500           : NULL VALUE
 COMP     .                             :
 WELL     .         DD-2X               : WELL NAME
 EKB      .M        28.8000             : KELLY BUSHING ELEVATION
 EGL      .M        0.0000              : GROUND LEVEL ELEVATION
 FLD      .                              :
 LOC      . X = 452421.8000 Y = 1118910.9600: WELL LOCATION
 PROV     .                              :
 SRVC     .                              :
 PROV     .                              :
 DATE     .                              :
 UWI      .         Unknown              : UNIQUE WELL ID
 API      .                              :
#
~Curve Information Section
#MNEM     .UNIT               Curve #DESCRIPTION
#-----    -----               ----   --------------
 DEPTH    .M                  : 1     Name = Domain Curve - Type = DEPTH
 RHOB     .g/cm3              : 2     Name = Density - Type = Density
 UNKNOWN  .(m/s)*(g/cc)       : 3     Name = P-Impedance_trans - Type = P-Impedance
 DT       .m/s                : 4     Name = P-wave - Type = P-wave
 UNKNOWN  .v/v                : 5     Name = PHIE - Type = Porosity
 UNKNOWN  .(m/s)*(g/cc)       : 6     Name = S-Impedance_trans - Type = S-Impedance
 SDT      .m/s                : 7     Name = S-wave - Type = S-wave
 UNKNOWN  .0.Sw               : 8     Name = SW - Type = Water Saturation
 UNKNOWN  .fraction           : 9     Name = VWCL - Type = Volumetric
 UNKNOWN  .unitless           : 10    Name = VpVs_Ratio - Type = VpVs_Ratio
 UNKNOWN  .md                 : 11    Name = lithology - Type = lithology
~A (ASCII LOG DATA)
# ...
 1542.0000          2.3074       7546.3940       3270.4851          0.2323       4049.7212       1755.0844          0.4602          0.2070          1.8634          5.0000
 1542.2500          2.2947       7347.7769       3202.0037          0.1922       3962.5083       1726.7814          0.4647          0.2941          1.8543          5.0000
 1542.5000          2.2881       7236.3003       3162.6033          0.1554       3936.6150       1720.4888          0.4170          0.3720          1.8382          5.0000
 1542.7500          2.2882       7274.3945       3179.0808          0.1596       3969.9575       1734.9642          0.4643          0.3711          1.8324          5.0000
 1543.0000          2.2946       7457.9048       3250.1702          0.2373       4079.3787       1777.8053          0.4573          0.2328          1.8282          5.0000
 1543.2500          2.3005       7624.0859       3314.1040          0.2365       4179.6636       1816.8505          0.4638          0.2046          1.8241          5.0000
 1543.5000          2.3006       7683.4233       3339.7920          0.2381       4246.6992       1845.9348          0.4660          0.1936          1.8093          5.0000
 1543.7500          2.2998       7756.2026       3372.5159          0.2004       4302.9766       1870.9998          0.4778          0.2686          1.8025          5.0000
 1544.0000          2.3020       7896.8008       3430.3547          0.1885       4404.4341       1913.2758          0.4324          0.2758          1.7930          5.0000
 1544.2500          2.3033       8003.0249       3474.6611          0.1792       4482.9727       1946.3654          0.4969          0.2674          1.7852          5.0000
 1544.5000          2.2990       8005.2734       3482.0215          0.2210       4499.7886       1957.2571          0.4340          0.2102          1.7790          5.0000
 1544.7500          2.2890       7875.2856       3440.4578          0.2471       4449.5132       1943.8573          0.3750          0.1956          1.7699          5.0000
 1545.0000          2.2778       7729.2700       3393.2952          0.2639       4372.0303       1919.4037          0.3774          0.1512          1.7679          5.0000
 1545.2500          2.2737       7687.4834       3381.0471          0.2572       4337.9673       1907.8892          0.4046          0.1379          1.7721          5.0000
 1545.5000          2.2722       7688.1807       3383.5525          0.2356       4310.8325       1897.1876          0.4323          0.1576          1.7835          5.0000
 1545.7500          2.2671       7614.6528       3358.7776          0.1833       4241.0322       1870.6882          0.4877          0.2440          1.7955          5.0000
 1546.0000          2.2631       7581.6841       3350.1350          0.1775       4172.3340       1843.6329          0.4785          0.2803          1.8172          5.0000
 1546.2500          2.2583       7541.4688       3339.3979          0.2186       4100.5933       1815.7557          0.4819          0.2341          1.8392          5.0000
 1546.5000          2.2531       7499.2568       3328.4500          0.2502       4033.2317       1790.0961          0.4929          0.1744          1.8594          5.0000
 1546.7500          2.2484       7454.0913       3315.2190          0.2491       3995.6028       1777.0505          0.5107          0.1682          1.8656          5.0000
 1547.0000          2.2475       7458.6367       3318.6191          0.2535       4000.7324       1780.0715          0.5331          0.1429          1.8643          5.0000
 1547.2500          2.2588       7684.2764       3401.8303          0.2430       4115.6572       1821.9993          0.5203          0.1484          1.8671          5.0000
 1547.5000          2.2725       7909.0176       3480.2031          0.2348       4259.0649       1874.1022          0.5838          0.1391          1.8571          5.0000
 1547.7500          2.2872       8141.4727       3559.5264          0.2331       4411.9429       1928.9391          0.5896          0.1200          1.8453          5.0000
 1548.0000          2.2928       8222.3389       3586.1934          0.2147       4464.5288       1947.2150          0.5858          0.1551          1.8417          5.0000
 1548.2500          2.2917       8189.0127       3573.2532          0.2045       4440.6729       1937.6746          0.6179          0.1789          1.8441          5.0000
 1548.5000          2.2864       8078.8857       3533.5007          0.2240       4365.8760       1909.5215          0.5896          0.1621          1.8505          5.0000
 1548.7500          2.2787       7932.6230       3481.1802          0.2412       4267.8330       1872.9066          0.5971          0.1568          1.8587          5.0000
 1549.0000          2.2694       7764.9966       3421.5845          0.2574       4157.1304       1831.8007          0.5695          0.1572          1.8679          5.0000
 1549.2500          2.2593       7585.4316       3357.4839          0.2554       4038.5105       1787.5342          0.5637          0.1498          1.8783          5.0000
 1549.5000          2.2526       7465.6206       3314.2087          0.2493       3957.6833       1756.9292          0.5663          0.1716          1.8864          5.0000
 1549.7500          2.2482       7386.5610       3285.5049          0.2529       3904.1865       1736.5619          0.5407          0.2016          1.8920          5.0000
 1550.0000          2.2446       7322.7817       3262.3450          0.2557       3860.5461       1719.8970          0.5667          0.1622          1.8968          5.0000
 1550.2500          2.2434       7293.4731       3251.1279          0.2530       3839.8391       1711.6410          0.5752          0.1595          1.8994          5.0000
 1550.5000          2.2435       7281.1479       3245.4744          0.2536       3829.9536       1707.1508          0.5739          0.1485          1.9011          5.0000
 1550.7500          2.2451       7291.1387       3247.5078          0.2563       3834.7466       1708.0143          0.5724          0.1379          1.9013          5.0000
 1551.0000          2.2474       7314.5815       3254.6921          0.2505       3848.9971       1712.6475          0.5787          0.1354          1.9004          5.0000
 1551.2500          2.2495       7340.7954       3263.3201          0.2365       3865.8464       1718.5458          0.5937          0.1525          1.8989          5.0000
 1551.5000          2.2537       7410.5586       3288.1470          0.2348       3912.5483       1736.0397          0.5728          0.1728          1.8941          5.0000
 1551.7500          2.2575       7487.2529       3316.5432          0.2459       3965.2197       1756.4272          0.5718          0.1362          1.8882          5.0000
 1552.0000          2.2559       7503.1450       3326.0215          0.2389       3980.5801       1764.5260          0.5940          0.1682          1.8849          5.0000
 1552.2500          2.2478       7438.6758       3309.2607          0.2091       3944.8157       1754.9384          0.5904          0.2577          1.8857          5.0000
 1552.5000          2.2388       7372.7148       3293.1150          0.2053       3908.9641       1745.9878          0.5959          0.2727          1.8861          5.0000
 1552.7500          2.2340       7378.7676       3302.9116          0.2442       3923.0696       1756.0590          0.7133          0.2141          1.8809          4.0000
 1553.0000          2.2358       7481.5620       3346.1992          0.2655       3998.2534       1788.2535          0.9716          0.1752          1.8712          4.0000
 1553.2500          2.2440       7689.5352       3426.6436          0.2724       4140.6606       1845.1692          0.9703          0.1466          1.8572          4.0000
 1553.5000          2.2596       8012.0142       3545.6240          0.2550       4354.3174       1926.9358          0.9613          0.1600          1.8401          4.0000
