~VERSION INFORMATION
 VERS.                          2.0   : CWLS LOG ASCII STANDARD - VERSION 2.0
 WRAP.                          NO    : ONE LINE PER DEPTH STEP
#
~Well Information Section
#MNEM     .UNIT     DATA                DESCRIPTION
#-----    -----     --------            --------------
 STRT     .M        1119.0000           : START DEPTH
 STOP     .M        2191.0000           : END DEPTH
 STEP     .M        0.2500              : INCREMENT DEPTH
 NULL     .         -999.2500           : NULL VALUE
 COMP     .                             :
 WELL     .         DD-2X               : WELL NAME
 EKB      .M        28.8000             : KELLY BUSHING ELEVATION
 EGL      .M        0.0000              : GROUND LEVEL ELEVATION
 FLD      .                              :
 LOC      . X = 452421.8000 Y = 1118910.9600: WELL LOCATION
 PROV     .                              :
 SRVC     .                              :
 PROV     .                              :
 DATE     .                              :
 UWI      .         Unknown              : UNIQUE WELL ID
 API      .                              :
#
~Curve Information Section
#MNEM     .UNIT               Curve #DESCRIPTION
#-----    -----               ----   --------------
 DEPTH    .M                  : 1     Name = Domain Curve - Type = DEPTH
 RHOB     .g/cm3              : 2     Name = Density - Type = Density
 UNKNOWN  .(m/s)*(g/cc)       : 3     Name = P-Impedance_trans - Type = P-Impedance
 DT       .m/s                : 4     Name = P-wave - Type = P-wave
 UNKNOWN  .v/v                : 5     Name = PHIE - Type = Porosity
 UNKNOWN  .(m/s)*(g/cc)       : 6     Name = S-Impedance_trans - Type = S-Impedance
 SDT      .m/s                : 7     Name = S-wave - Type = S-wave
 UNKNOWN  .0.Sw               : 8     Name = SW - Type = Water Saturation
 UNKNOWN  .fraction           : 9     Name = VWCL - Type = Volumetric
 UNKNOWN  .unitless           : 10    Name = VpVs_Ratio - Type = VpVs_Ratio
 UNKNOWN  .md                 : 11    Name = lithology - Type = lithology
~A (ASCII LOG DATA)
# ...
 1224.7500          2.2795       5602.0928       2457.6379          0.0003       2277.5972        999.1797          0.9551          0.8170          2.4598          1.0000
 1225.0000          2.2749       5514.6978       2424.1333          0.0001       2206.5469        969.9385          0.8522          0.8914          2.4995          1.0000
 1225.2500          2.2633       5371.0137       2373.0383          0.0001       2095.4712        925.8198          0.8504          0.8737          2.5634          1.0000
 1225.5000          2.2502       5226.7510       2322.7249          0.0001       1987.2434        883.0917          0.8358          0.9128          2.6308          1.0000
 1225.7500          2.2401       5104.8613       2278.8896          0.0001       1895.8710        846.3416          0.8271          0.9173          2.6928          1.0000
 1226.0000          2.2288       4970.0439       2229.9150          0.0002       1796.8719        806.1926          0.9033          0.8219          2.7663          1.0000
 1226.2500          2.2175       4855.4214       2189.5164          0.0001       1715.8944        773.7547          0.8465          0.8748          2.8301          1.0000
 1226.5000          2.2036       4733.7607       2148.2195          0.0001       1632.6340        740.8939          1.0000          0.9910          2.8997          1.0000
 1226.7500          2.2005       4709.5610       2140.2400          0.0001       1616.6062        734.6588          0.9636          0.9618          2.9133          1.0000
 1227.0000          2.2080       4769.8730       2160.2097          0.0002       1658.4412        751.0779          0.9325          0.8588          2.8763          1.0000
 1227.2500          2.2125       4811.4463       2174.6638          0.0006       1688.5833        763.2009          1.0000          0.8007          2.8494          1.0000
 1227.5000          2.2100       4799.1245       2171.5381          0.0001       1682.7506        761.4212          0.9222          0.9221          2.8520          1.0000
 1227.7500          2.2082       4786.6118       2167.6558          0.0001       1675.1500        758.6050          0.8670          0.9376          2.8574          1.0000
 1228.0000          2.2116       4807.9146       2173.9744          0.0001       1687.9722        763.2427          0.8733          0.9271          2.8483          1.0000
 1228.2500          2.2170       4839.8179       2183.0513          0.0001       1706.6146        769.7852          0.8976          0.9569          2.8359          1.0000
 1228.5000          2.2218       4866.4517       2190.3340          0.0001       1721.0802        774.6382          0.8852          0.9663          2.8276          1.0000
 1228.7500          2.2255       4888.5186       2196.6135          0.0001       1732.7987        778.6170          0.9094          0.8953          2.8212          1.0000
 1229.0000          2.2342       4963.2310       2221.4592          0.0002       1782.1191        797.6315          0.9835          0.8649          2.7854          1.0000
 1229.2500          2.2553       5172.9414       2293.5620          0.0002       1922.3553        852.2690          0.9943          0.8542          2.6925          1.0000
 1229.5000          2.2893       5560.8198       2428.7820          0.0001       2179.2622        951.7515          0.9583          0.9309          2.5535          1.0000
 1229.7500          2.3249       5996.5723       2578.9126          0.0001       2471.3469       1062.7307          0.9450          0.9910          2.4284          2.0000
 1230.0000          2.3504       6310.9692       2684.9849          0.0001       2686.8284       1143.0839          0.6394          0.9091          2.3492          2.0000
 1230.2500          2.3651       6493.2910       2745.4985          0.0001       2815.6982       1190.5299          0.8076          0.8723          2.3062          2.0000
 1230.5000          2.3679       6529.3096       2757.4277          0.0001       2841.8477       1200.1537          0.9898          0.8734          2.2976          2.0000
 1230.7500          2.3540       6384.9956       2712.3000          0.0001       2745.6008       1166.2896          0.9411          0.9744          2.3258          2.0000
 1231.0000          2.3221       6037.8091       2599.6177          0.0001       2516.0542       1083.1497          1.0000          1.0000          2.4021          1.0000
 1231.2500          2.2738       5515.3809       2425.2754          0.0001       2170.2871        954.2055          0.9997          0.9991          2.5439          1.0000
 1231.5000          2.2334       5096.8291       2281.9465          0.0001       1893.2048        847.5617          0.9965          0.9878          2.6938          1.0000
 1231.7500          2.2136       4899.7192       2213.4570          0.0001       1763.2776        796.5530          0.9581          0.9681          2.7790          1.0000
 1232.0000          2.2029       4809.8086       2183.4258          0.0001       1706.0139        774.4435          1.0000          0.9013          2.8195          1.0000
 1232.2500          2.1912       4724.7144       2156.2004          0.0001       1651.4921        753.6830          0.9568          0.8876          2.8609          1.0000
 1232.5000          2.1855       4684.2710       2143.3486          0.0001       1625.3070        743.6789          0.9694          0.9351          2.8821          1.0000
 1232.7500          2.1874       4699.5186       2148.4485          0.0003       1636.7784        748.2744          0.9748          0.8204          2.8712          1.0000
 1233.0000          2.1954       4761.1387       2168.6982          0.0005       1680.5472        765.4869          0.9558          0.7981          2.8331          1.0000
 1233.2500          2.1962       4770.2163       2171.9878          0.0002       1687.9073        768.5418          0.8596          0.8609          2.8261          1.0000
 1233.5000          2.1917       4740.7344       2163.0027          0.0001       1670.7355        762.2881          0.8720          0.8857          2.8375          1.0000
 1233.7500          2.1913       4750.6904       2167.9443          0.0001       1682.4071        767.7537          0.9264          0.8845          2.8238          1.0000
 1234.0000          2.1938       4801.7095       2188.7937          0.0001       1728.4447        787.8853          0.9915          0.8960          2.7783          1.0000
 1234.2500          2.1987       4885.6836       2222.0269          0.0001       1800.6014        818.9100          1.0000          0.9102          2.7139          1.0000
 1234.5000          2.2139       5103.6958       2305.2168          0.0001       1970.1556        889.8226          1.0000          0.8498          2.5923          1.0000
 1234.7500          2.2343       5412.5435       2422.3010          0.0003       2198.8579        983.9885          1.0000          0.8245          2.4638          1.0000
 1235.0000          2.2631       5865.0166       2591.5261          0.0067       2528.8191       1117.3566          1.0000          0.6876          2.3199          1.0000
 1235.2500          2.2860       6201.0151       2712.3455          0.0069       2774.1104       1213.3279          0.9719          0.6832          2.2365          1.0000
 1235.5000          2.3093       6513.2456       2820.4265          0.0118       2999.7163       1298.9465          0.8148          0.6671          2.1715          1.0000
 1235.7500          2.3304       6786.0000       2911.8381          0.0734       3194.3066       1370.6390          0.6218          0.5413          2.1246          1.0000
 1236.0000          2.3416       6935.8521       2961.9919          0.1163       3299.3708       1409.0110          0.5622          0.4728          2.1022          4.0000
 1236.2500          2.3433       6957.5942       2969.1257          0.1409       3314.8049       1414.5787          0.5433          0.4136          2.0990          1.0000
