~VERSION INFORMATION
 VERS.                          2.0   : CWLS LOG ASCII STANDARD - VERSION 2.0
 WRAP.                          NO    : ONE LINE PER DEPTH STEP
#
~Well Information Section
#MNEM     .UNIT     DATA                DESCRIPTION
#-----    -----     --------            --------------
 STRT     .M        1119.0000           : START DEPTH
 STOP     .M        2191.0000           : END DEPTH
 STEP     .M        0.2500              : INCREMENT DEPTH
 NULL     .         -999.2500           : NULL VALUE
 COMP     .                             :
 WELL     .         DD-2X               : WELL NAME
 EKB      .M        28.8000             : KELLY BUSHING ELEVATION
 EGL      .M        0.0000              : GROUND LEVEL ELEVATION
 FLD      .                              :
 LOC      . X = 452421.8000 Y = 1118910.9600: WELL LOCATION
 PROV     .                              :
 SRVC     .                              :
 PROV     .                              :
 DATE     .                              :
 UWI      .         Unknown              : UNIQUE WELL ID
 API      .                              :
#
~Curve Information Section
#MNEM     .UNIT               Curve #DESCRIPTION
#-----    -----               ----   --------------
 DEPTH    .M                  : 1     Name = Domain Curve - Type = DEPTH
 RHOB     .g/cm3              : 2     Name = Density - Type = Density
 UNKNOWN  .(m/s)*(g/cc)       : 3     Name = P-Impedance_trans - Type = P-Impedance
 DT       .m/s                : 4     Name = P-wave - Type = P-wave
 UNKNOWN  .v/v                : 5     Name = PHIE - Type = Porosity
 UNKNOWN  .(m/s)*(g/cc)       : 6     Name = S-Impedance_trans - Type = S-Impedance
 SDT      .m/s                : 7     Name = S-wave - Type = S-wave
 UNKNOWN  .0.Sw               : 8     Name = SW - Type = Water Saturation
 UNKNOWN  .fraction           : 9     Name = VWCL - Type = Volumetric
 UNKNOWN  .unitless           : 10    Name = VpVs_Ratio - Type = VpVs_Ratio
 UNKNOWN  .md                 : 11    Name = lithology - Type = lithology
~A (ASCII LOG DATA)
# ...
 1671.2500          2.4115      10724.3848       4447.1475          0.1542       6065.8799       2515.3694          0.7252          0.1515          1.7680          4.0000
 1671.5000          2.4268      11016.7939       4539.5669          0.1413       6245.8462       2573.6521          0.8508          0.1010          1.7639          4.0000
 1671.7500          2.4358      11194.3682       4595.7476          0.1414       6354.5864       2608.8181          0.8620          0.0847          1.7616          4.0000
 1672.0000          2.4387      11251.9541       4613.9771          0.1433       6389.7446       2620.1787          0.9627          0.0960          1.7609          4.0000
 1672.2500          2.4418      11321.0410       4636.4321          0.1454       6431.7583       2634.0696          0.8673          0.0934          1.7602          4.0000
 1672.5000          2.4450      11402.8174       4663.8022          0.1589       6481.7749       2651.0737          0.9512          0.1016          1.7592          4.0000
 1672.7500          2.4491      11508.9375       4699.2207          0.1528       6546.8530       2673.1489          0.7016          0.1175          1.7579          4.0000
 1673.0000          2.4535      11614.1396       4733.7163          0.1348       6612.0127       2694.9382          0.8086          0.1007          1.7565          4.0000
 1673.2500          2.4593      11739.0293       4773.3276          0.1304       6687.1772       2719.1414          0.9798          0.0958          1.7555          4.0000
 1673.5000          2.4624      11808.9072       4795.6382          0.1365       6730.1865       2733.1521          0.9286          0.1073          1.7546          4.0000
 1673.7500          2.4556      11682.5400       4757.4102          0.1426       6655.6606       2710.3435          0.9991          0.1078          1.7553          4.0000
 1674.0000          2.4470      11511.7998       4704.5103          0.1372       6555.0400       2678.8381          0.8885          0.1041          1.7562          4.0000
 1674.2500          2.4427      11424.8906       4677.2188          0.1565       6504.2456       2662.7629          0.8870          0.1048          1.7565          4.0000
 1674.5000          2.4404      11387.0625       4666.0518          0.1684       6483.1060       2656.5684          0.6545          0.1071          1.7564          4.0000
 1674.7500          2.4425      11445.9863       4686.1709          0.1495       6519.4043       2669.1482          0.6102          0.1017          1.7557          4.0000
 1675.0000          2.4522      11670.4951       4759.1094          0.1495       6653.3569       2713.1702          0.7821          0.1161          1.7541          4.0000
 1675.2500          2.4695      12040.8623       4875.6919          0.1417       6871.4863       2782.4587          0.6967          0.0945          1.7523          4.0000
 1675.5000          2.4809      12283.1914       4951.0381          0.1210       7015.0508       2827.5862          0.8856          0.0687          1.7510          3.0000
 1675.7500          2.4748      12158.1172       4912.7168          0.0838       6938.9165       2803.7942          0.9377          0.1327          1.7522          3.0000
 1676.0000          2.4527      11708.2803       4773.4419          0.0669       6660.4800       2715.4502          0.9146          0.2181          1.7579          3.0000
 1676.2500          2.4256      11154.1758       4598.1523          0.1039       6315.3433       2603.3877          1.0000          0.2183          1.7663          4.0000
 1676.5000          2.3900      10420.7061       4359.9478          0.1638       5862.3032       2452.7314          1.0000          0.1884          1.7776          4.0000
 1676.7500          2.3545       9702.6045       4120.1367          0.2146       5423.5913       2303.0427          1.0000          0.1676          1.7891          4.0000
 1677.0000          2.3217       9052.9004       3899.1233          0.2208       5024.2979       2163.9727          1.0000          0.2230          1.8019          4.0000
 1677.2500          2.2946       8531.4492       3717.9648          0.2068       4694.5737       2045.8606          1.0000          0.2587          1.8174          4.0000
 1677.5000          2.2847       8322.9346       3642.8918          0.1960       4557.1914       1994.6486          0.9964          0.2802          1.8264          4.0000
 1677.7500          2.2788       8181.2168       3590.0994          0.2076       4460.0425       1957.1637          0.9423          0.2685          1.8344          4.0000
 1678.0000          2.2730       8052.4351       3542.6245          0.2311       4372.4233       1923.6200          0.8614          0.2548          1.8417          4.0000
 1678.2500          2.2655       7904.1606       3488.8359          0.2267       4272.9097       1886.0262          0.8860          0.2785          1.8499          4.0000
 1678.5000          2.2577       7762.4341       3438.1045          0.2323       4178.3296       1850.6443          0.8853          0.2643          1.8578          4.0000
 1678.7500          2.2501       7632.5840       3392.1130          0.2275       4092.4814       1818.8005          0.8898          0.2841          1.8650          4.0000
 1679.0000          2.2457       7572.1016       3371.7898          0.2177       4053.9739       1805.1982          0.8851          0.3046          1.8678          4.0000
 1679.2500          2.2415       7534.2188       3361.2166          0.2280       4032.5251       1799.0175          0.8803          0.2779          1.8684          4.0000
 1679.5000          2.2404       7546.9526       3368.5034          0.2216       4043.8972       1804.9513          0.9439          0.2751          1.8663          4.0000
 1679.7500          2.2397       7558.0142       3374.5942          0.2243       4053.5779       1809.8907          0.9979          0.2811          1.8645          4.0000
 1680.0000          2.2369       7531.1367       3366.8435          0.2303       4037.9861       1805.2078          0.9959          0.2883          1.8651          4.0000
 1680.2500          2.2350       7509.8589       3360.0923          0.2242       4024.6931       1800.7448          0.9990          0.2907          1.8659          4.0000
 1680.5000          2.2329       7472.2241       3346.3899          0.2270       3998.8872       1790.8766          0.9980          0.2712          1.8686          4.0000
 1680.7500          2.2297       7402.3169       3319.8545          0.2421       3950.3013       1771.6636          0.9646          0.2486          1.8739          4.0000
 1681.0000          2.2240       7291.6997       3278.6130          0.2406       3873.9348       1741.8579          0.9768          0.2476          1.8823          4.0000
 1681.2500          2.2177       7177.9912       3236.6858          0.2384       3796.1157       1711.7354          0.9010          0.2433          1.8909          4.0000
 1681.5000          2.2136       7099.5249       3207.2798          0.2532       3742.1514       1690.5529          0.9331          0.2120          1.8972          4.0000
 1681.7500          2.2116       7060.4175       3192.5002          0.2599       3714.7629       1679.6990          0.9112          0.1989          1.9006          4.0000
 1682.0000          2.2062       6976.5122       3162.2102          0.2607       3658.0974       1658.0869          0.8779          0.1940          1.9072          4.0000
 1682.2500          2.2011       6900.6064       3135.1284          0.2470       3607.1914       1638.8414          0.9112          0.2189          1.9130          4.0000
 1682.5000          2.1987       6867.3394       3123.3103          0.2487       3584.8274       1630.4026          0.9400          0.2147          1.9157          4.0000
 1682.7500          2.1987       6866.8765       3123.2107          0.2690       3584.4700       1630.2981          0.9242          0.1991          1.9157          4.0000
