~VERSION INFORMATION
 VERS.                          2.0   : CWLS LOG ASCII STANDARD - VERSION 2.0
 WRAP.                          NO    : ONE LINE PER DEPTH STEP
#
~Well Information Section
#MNEM     .UNIT     DATA                DESCRIPTION
#-----    -----     --------            --------------
 STRT     .M        1119.0000           : START DEPTH
 STOP     .M        2191.0000           : END DEPTH
 STEP     .M        0.2500              : INCREMENT DEPTH
 NULL     .         -999.2500           : NULL VALUE
 COMP     .                             :
 WELL     .         DD-2X               : WELL NAME
 EKB      .M        28.8000             : KELLY BUSHING ELEVATION
 EGL      .M        0.0000              : GROUND LEVEL ELEVATION
 FLD      .                              :
 LOC      . X = 452421.8000 Y = 1118910.9600: WELL LOCATION
 PROV     .                              :
 SRVC     .                              :
 PROV     .                              :
 DATE     .                              :
 UWI      .         Unknown              : UNIQUE WELL ID
 API      .                              :
#
~Curve Information Section
#MNEM     .UNIT               Curve #DESCRIPTION
#-----    -----               ----   --------------
 DEPTH    .M                  : 1     Name = Domain Curve - Type = DEPTH
 RHOB     .g/cm3              : 2     Name = Density - Type = Density
 UNKNOWN  .(m/s)*(g/cc)       : 3     Name = P-Impedance_trans - Type = P-Impedance
 DT       .m/s                : 4     Name = P-wave - Type = P-wave
 UNKNOWN  .v/v                : 5     Name = PHIE - Type = Porosity
 UNKNOWN  .(m/s)*(g/cc)       : 6     Name = S-Impedance_trans - Type = S-Impedance
 SDT      .m/s                : 7     Name = S-wave - Type = S-wave
 UNKNOWN  .0.Sw               : 8     Name = SW - Type = Water Saturation
 UNKNOWN  .fraction           : 9     Name = VWCL - Type = Volumetric
 UNKNOWN  .unitless           : 10    Name = VpVs_Ratio - Type = VpVs_Ratio
 UNKNOWN  .md                 : 11    Name = lithology - Type = lithology
~A (ASCII LOG DATA)
# ...
 1929.7500          2.4563       8313.0879       3384.3762          0.0001       4103.7573       1670.7002          1.0000          1.0000          2.0259          1.0000
 1930.0000          2.4521       8492.9727       3463.5613          0.0001       4264.3096       1739.0604          1.0000          0.9562          1.9918          1.0000
 1930.2500          2.4367       8550.2900       3508.9268          0.0019       4365.5249       1791.5804          1.0000          0.7825          1.9586          1.0000
 1930.5000          2.4106       8451.1182       3505.7849          0.0417       4363.2476       1810.0327          0.9906          0.5851          1.9369          1.0000
 1930.7500          2.3885       8309.0693       3478.7312          0.0629       4314.1655       1806.2046          0.8721          0.5106          1.9260          1.0000
 1931.0000          2.3678       8167.0347       3449.2532          0.1179       4259.8018       1799.0822          0.8249          0.3077          1.9172          4.0000
 1931.2500          2.3501       8017.4971       3411.4250          0.1432       4190.9355       1783.2346          0.8382          0.2158          1.9131          4.0000
 1931.5000          2.3338       7852.7642       3364.8162          0.1179       4105.4717       1759.1460          0.8579          0.3141          1.9128          4.0000
 1931.7500          2.3281       7818.3184       3358.2009          0.1269       4093.3547       1758.2173          0.8479          0.2764          1.9100          4.0000
 1932.0000          2.3321       7906.8560       3390.3635          0.1566       4154.6172       1781.4465          0.8431          0.1472          1.9032          4.0000
 1932.2500          2.3406       8033.1055       3432.1182          0.1362       4235.6963       1809.6866          0.9162          0.1833          1.8965          4.0000
 1932.5000          2.3459       8089.7466       3448.4819          0.1347       4267.6431       1819.2030          0.9029          0.1858          1.8956          4.0000
 1932.7500          2.3528       8156.2593       3466.5354          0.1228       4302.8057       1828.7583          0.9003          0.2277          1.8956          4.0000
 1933.0000          2.3602       8229.6865       3486.8784          0.0888       4342.1270       1839.7383          0.9578          0.3470          1.8953          4.0000
 1933.2500          2.3626       8239.1016       3487.2300          0.0947       4343.4614       1838.3860          0.9342          0.3193          1.8969          4.0000
 1933.5000          2.3619       8219.7822       3480.0969          0.0985       4329.7778       1833.1444          0.8297          0.2823          1.8984          4.0000
 1933.7500          2.3598       8209.2422       3478.7219          0.0961       4326.8320       1833.5247          0.7836          0.2809          1.8973          4.0000
 1934.0000          2.3582       8227.2393       3488.8364          0.1029       4344.7686       1842.4399          0.7630          0.2521          1.8936          4.0000
 1934.2500          2.3548       8239.3135       3498.9038          0.1079       4363.0439       1852.8091          0.7818          0.2316          1.8884          4.0000
 1934.5000          2.3495       8234.2998       3504.6414          0.1122       4372.2793       1860.9092          0.9634          0.2508          1.8833          4.0000
 1934.7500          2.3487       8296.5107       3532.3433          0.1358       4423.5420       1883.3768          0.9345          0.1718          1.8756          4.0000
 1935.0000          2.3541       8455.8945       3591.9661          0.1602       4534.5049       1926.2008          0.9646          0.0871          1.8648          4.0000
 1935.2500          2.3603       8598.5518       3643.0042          0.1553       4630.9697       1962.0316          0.9155          0.1099          1.8568          4.0000
 1935.5000          2.3638       8659.0742       3663.1653          0.1504       4669.2485       1975.2955          0.8942          0.1220          1.8545          4.0000
 1935.7500          2.3665       8664.5117       3661.3936          0.1225       4667.4106       1972.3247          0.8507          0.2077          1.8564          4.0000
 1936.0000          2.3708       8654.4580       3650.3970          0.1228       4648.3608       1960.6519          0.9215          0.2125          1.8618          4.0000
 1936.2500          2.3742       8620.5186       3630.8687          0.1400       4612.4824       1942.7284          0.9757          0.1725          1.8690          4.0000
 1936.5000          2.3766       8522.0928       3585.8901          0.1353       4529.4902       1905.9005          0.9076          0.2218          1.8815          4.0000
 1936.7500          2.3784       8445.9570       3551.1750          0.1073       4465.2974       1877.4739          0.8565          0.3810          1.8915          1.0000
 1937.0000          2.3797       8378.3037       3520.7122          0.0625       4408.2788       1852.4370          0.9160          0.5320          1.9006          1.0000
 1937.2500          2.3785       8319.6113       3497.7749          0.0009       4364.9419       1835.1312          0.9942          0.8571          1.9060          1.0000
 1937.5000          2.3707       8223.0693       3468.6316          0.0011       4307.6045       1817.0200          0.9954          0.8537          1.9090          1.0000
 1937.7500          2.3568       8085.8003       3430.7751          0.0539       4232.3999       1795.7909          0.8974          0.5976          1.9105          1.0000
 1938.0000          2.3388       7921.6587       3387.0728          0.1295       4146.1602       1772.7787          0.7676          0.4248          1.9106          4.0000
 1938.2500          2.3227       7774.5625       3347.2041          0.1609       4068.8972       1751.7932          0.8186          0.2970          1.9107          4.0000
 1938.5000          2.3090       7654.3276       3315.0481          0.1811       4006.5776       1735.2278          0.8232          0.1968          1.9104          4.0000
 1938.7500          2.3049       7648.7319       3318.5178          0.1932       4012.2642       1740.7794          0.7880          0.1811          1.9064          4.0000
 1939.0000          2.3135       7806.1479       3374.0969          0.1845       4114.1304       1778.2665          0.8165          0.2186          1.8974          4.0000
 1939.2500          2.3353       8127.4243       3480.1787          0.1661       4312.4189       1846.5795          0.8184          0.2661          1.8847          4.0000
 1939.5000          2.3467       8255.1953       3517.7161          0.0961       4386.2012       1869.0552          0.8258          0.4829          1.8821          1.0000
 1939.7500          2.3509       8274.9561       3519.9636          0.0086       4392.6245       1868.5150          0.9996          0.6733          1.8838          1.0000
 1940.0000          2.3520       8284.0684       3522.1658          0.0812       4397.7109       1869.7898          0.9771          0.4937          1.8837          1.0000
 1940.2500          2.3505       8289.0537       3526.4324          0.1416       4405.6411       1874.3027          0.9833          0.2833          1.8815          4.0000
 1940.5000          2.3424       8195.0674       3498.5591          0.1626       4351.0996       1857.5264          0.9182          0.2130          1.8835          4.0000
 1940.7500          2.3249       7959.4229       3423.5208          0.1710       4211.9727       1811.6592          0.9752          0.1843          1.8897          4.0000
 1941.0000          2.3162       7865.7974       3395.9258          0.1785       4159.8984       1795.9663          0.8586          0.1391          1.8909          4.0000
 1941.2500          2.3134       7863.5132       3399.0454          0.1732       4164.6294       1800.1832          0.9062          0.1168          1.8882          4.0000
