~VERSION INFORMATION
 VERS.                          2.0   : CWLS LOG ASCII STANDARD - VERSION 2.0
 WRAP.                          NO    : ONE LINE PER DEPTH STEP
#
~Well Information Section
#MNEM     .UNIT     DATA                DESCRIPTION
#-----    -----     --------            --------------
 STRT     .M        1119.0000           : START DEPTH
 STOP     .M        2191.0000           : END DEPTH
 STEP     .M        0.2500              : INCREMENT DEPTH
 NULL     .         -999.2500           : NULL VALUE
 COMP     .                             :
 WELL     .         DD-2X               : WELL NAME
 EKB      .M        28.8000             : KELLY BUSHING ELEVATION
 EGL      .M        0.0000              : GROUND LEVEL ELEVATION
 FLD      .                              :
 LOC      . X = 452421.8000 Y = 1118910.9600: WELL LOCATION
 PROV     .                              :
 SRVC     .                              :
 PROV     .                              :
 DATE     .                              :
 UWI      .         Unknown              : UNIQUE WELL ID
 API      .                              :
#
~Curve Information Section
#MNEM     .UNIT               Curve #DESCRIPTION
#-----    -----               ----   --------------
 DEPTH    .M                  : 1     Name = Domain Curve - Type = DEPTH
 RHOB     .g/cm3              : 2     Name = Density - Type = Density
 UNKNOWN  .(m/s)*(g/cc)       : 3     Name = P-Impedance_trans - Type = P-Impedance
 DT       .m/s                : 4     Name = P-wave - Type = P-wave
 UNKNOWN  .v/v                : 5     Name = PHIE - Type = Porosity
 UNKNOWN  .(m/s)*(g/cc)       : 6     Name = S-Impedance_trans - Type = S-Impedance
 SDT      .m/s                : 7     Name = S-wave - Type = S-wave
 UNKNOWN  .0.Sw               : 8     Name = SW - Type = Water Saturation
 UNKNOWN  .fraction           : 9     Name = VWCL - Type = Volumetric
 UNKNOWN  .unitless           : 10    Name = VpVs_Ratio - Type = VpVs_Ratio
 UNKNOWN  .md                 : 11    Name = lithology - Type = lithology
~A (ASCII LOG DATA)
# ...
 1412.7500          2.3984       7012.1323       2923.7153          0.0073       3174.7976       1323.7366          0.9978          0.7860          2.2087          1.0000
 1413.0000          2.3739       6803.8501       2865.9968          0.0728       3055.7788       1287.1748          0.7006          0.3970          2.2267          4.0000
 1413.2500          2.3519       6583.0459       2798.8984          0.0260       2909.5322       1236.9998          0.9252          0.5295          2.2630          1.0000
 1413.5000          2.3286       6323.8525       2715.6941          0.0002       2730.1497       1172.4041          1.0000          0.9136          2.3166          1.0000
 1413.7500          2.3008       5980.5576       2598.9873          0.0001       2497.1479       1085.0812          1.0000          1.0000          2.3969          1.0000
 1414.0000          2.2593       5450.7295       2412.1411          0.0001       2148.6140        950.6860          0.8464          0.9526          2.5404          1.0000
 1414.2500          2.2252       5018.2559       2255.0073          0.0001       1860.7063        836.0662          0.7301          0.9264          2.6991          1.0000
 1414.5000          2.2219       4934.4722       2220.8230          0.0001       1795.0198        807.8715          0.9734          0.9936          2.7490          1.0000
 1414.7500          2.2345       5021.0146       2247.0278          0.0001       1845.4895        825.8879          1.0000          1.0000          2.7210          1.0000
 1415.0000          2.2444       5104.2578       2274.2000          0.0001       1901.8090        847.3486          1.0000          1.0000          2.6839          1.0000
 1415.2500          2.2503       5164.7861       2295.1348          0.0001       1945.5731        864.5718          0.9226          0.9727          2.6548          1.0000
 1415.5000          2.2569       5224.6675       2314.9983          0.0001       1986.4695        880.1834          0.7313          0.8753          2.6302          1.0000
 1415.7500          2.2603       5248.6060       2322.0603          0.0001       2000.8243        885.1933          0.8643          0.9073          2.6232          1.0000
 1416.0000          2.2547       5194.2939       2303.7896          0.0001       1963.0277        870.6413          0.9784          0.9861          2.6462          1.0000
 1416.2500          2.2460       5117.0083       2278.3022          0.0001       1912.4700        851.5090          1.0000          1.0000          2.6756          1.0000
 1416.5000          2.2477       5138.4873       2286.1162          0.0001       1928.3219        857.9041          1.0000          1.0000          2.6649          1.0000
 1416.7500          2.2643       5326.6641       2352.3110          0.0001       2055.1909        907.5543          1.0000          1.0000          2.5928          1.0000
 1417.0000          2.2855       5599.4170       2449.8455          0.0001       2239.5044        979.7759          1.0000          1.0000          2.5014          1.0000
 1417.2500          2.3123       5961.7070       2578.1846          0.0001       2490.8877       1077.1653          0.8924          0.9775          2.3941          1.0000
 1417.5000          2.3334       6234.3403       2671.6829          0.0010       2684.1064       1150.2050          0.7170          0.8056          2.3235          1.0000
 1417.7500          2.3525       6474.5015       2752.2168          0.0043       2854.5286       1213.4141          0.7408          0.7062          2.2682          1.0000
 1418.0000          2.3581       6543.3013       2774.8110          0.0071       2903.1523       1231.1354          0.8214          0.6801          2.2539          1.0000
 1418.2500          2.3510       6455.8535       2745.9211          0.0043       2842.3159       1208.9287          0.8337          0.7260          2.2716          1.0000
 1418.5000          2.3217       6091.2720       2623.3584          0.0002       2593.5098       1116.8584          0.7748          0.8772          2.3503          1.0000
 1418.7500          2.2833       5646.9282       2472.7825          0.0001       2288.2046       1001.8719          0.9649          0.9916          2.4703          1.0000
 1419.0000          2.2432       5222.9834       2328.0342          0.0001       1993.9612        888.6502          1.0000          1.0000          2.6221          1.0000
 1419.2500          2.2141       4918.7290       2221.5308          0.0001       1782.7130        805.1369          1.0000          1.0000          2.7598          1.0000
 1419.5000          2.2045       4819.1343       2186.0430          0.0001       1715.0389        777.9697          1.0000          1.0000          2.8100          1.0000
 1419.7500          2.2060       4844.8438       2196.2148          0.0001       1735.2205        786.5912          1.0000          1.0000          2.7921          1.0000
 1420.0000          2.1969       4808.7261       2188.8481          0.0001       1721.8956        783.7743          0.9772          0.9187          2.7927          1.0000
 1420.2500          2.1870       4763.9478       2178.2742          0.0001       1699.7905        777.2144          1.0000          0.8958          2.8027          1.0000
 1420.5000          2.1817       4734.8140       2170.2798          0.0001       1710.0078        783.8149          1.0000          0.9773          2.7689          1.0000
 1420.7500          2.1740       4653.7715       2140.6892          0.0001       1714.9180        788.8489          1.0000          0.8996          2.7137          1.0000
 1421.0000          2.1721       4688.4805       2158.4424          0.0070       1752.7936        806.9269          0.9826          0.7249          2.6753          1.0000
 1421.2500          2.1819       4843.8726       2219.9849          0.0489       1868.1537        856.1769          0.8801          0.5690          2.5933          1.0000
 1421.5000          2.1995       5034.5742       2288.8501          0.0423       1999.1646        908.8370          0.9846          0.5809          2.5190          1.0000
 1421.7500          2.2286       5290.2832       2373.5815          0.0174       2172.0710        974.4619          0.9953          0.6379          2.4367          1.0000
 1422.0000          2.2634       5580.6694       2465.4993          0.0002       2364.2810       1044.4999          0.8609          0.8502          2.3607          1.0000
 1422.2500          2.2988       5942.5664       2584.7473          0.0002       2546.3733       1107.5255          0.8478          0.8607          2.3340          1.0000
 1422.5000          2.3230       6156.5732       2650.3059          0.0003       2670.2837       1149.5115          0.8673          0.8318          2.3056          1.0000
 1422.7500          2.3200       6054.8662       2609.7874          0.0001       2589.1997       1115.9967          0.8585          0.9492          2.3387          1.0000
 1423.0000          2.3135       5960.8901       2576.5376          0.0001       2523.7598       1090.8699          0.8518          0.9466          2.3619          1.0000
 1423.2500          2.3123       5964.2285       2579.3479          0.0001       2530.7058       1094.4530          0.8601          0.9065          2.3568          1.0000
 1423.5000          2.3176       6091.5537       2628.2729          0.0001       2628.1714       1133.9346          0.8629          0.9391          2.3183          1.0000
 1423.7500          2.3377       6475.3325       2769.6531          0.0208       2894.4731       1237.9604          0.9644          0.6956          2.2386          1.0000
 1424.0000          2.3648       7020.1060       2968.2075          0.0780       3262.9583       1379.5490          0.8348          0.5383          2.1527          1.0000
 1424.2500          2.3913       7611.6479       3182.9517          0.1256       3675.7527       1537.0381          0.6278          0.4524          2.0715          1.0000
