~VERSION INFORMATION
 VERS.                          2.0   : CWLS LOG ASCII STANDARD - VERSION 2.0
 WRAP.                          NO    : ONE LINE PER DEPTH STEP
#
~Well Information Section
#MNEM     .UNIT     DATA                DESCRIPTION
#-----    -----     --------            --------------
 STRT     .M        1119.0000           : START DEPTH
 STOP     .M        2191.0000           : END DEPTH
 STEP     .M        0.2500              : INCREMENT DEPTH
 NULL     .         -999.2500           : NULL VALUE
 COMP     .                             :
 WELL     .         DD-2X               : WELL NAME
 EKB      .M        28.8000             : KELLY BUSHING ELEVATION
 EGL      .M        0.0000              : GROUND LEVEL ELEVATION
 FLD      .                              :
 LOC      . X = 452421.8000 Y = 1118910.9600: WELL LOCATION
 PROV     .                              :
 SRVC     .                              :
 PROV     .                              :
 DATE     .                              :
 UWI      .         Unknown              : UNIQUE WELL ID
 API      .                              :
#
~Curve Information Section
#MNEM     .UNIT               Curve #DESCRIPTION
#-----    -----               ----   --------------
 DEPTH    .M                  : 1     Name = Domain Curve - Type = DEPTH
 RHOB     .g/cm3              : 2     Name = Density - Type = Density
 UNKNOWN  .(m/s)*(g/cc)       : 3     Name = P-Impedance_trans - Type = P-Impedance
 DT       .m/s                : 4     Name = P-wave - Type = P-wave
 UNKNOWN  .v/v                : 5     Name = PHIE - Type = Porosity
 UNKNOWN  .(m/s)*(g/cc)       : 6     Name = S-Impedance_trans - Type = S-Impedance
 SDT      .m/s                : 7     Name = S-wave - Type = S-wave
 UNKNOWN  .0.Sw               : 8     Name = SW - Type = Water Saturation
 UNKNOWN  .fraction           : 9     Name = VWCL - Type = Volumetric
 UNKNOWN  .unitless           : 10    Name = VpVs_Ratio - Type = VpVs_Ratio
 UNKNOWN  .md                 : 11    Name = lithology - Type = lithology
~A (ASCII LOG DATA)
# ...
 2000.2500          2.3171       7879.7568       3400.7380          0.1624       4156.0254       1793.6528          0.7562          0.2340          1.8960          4.0000
 2000.5000          2.3282       8126.8281       3490.5288          0.1653       4315.1426       1853.3757          0.8251          0.2095          1.8834          4.0000
 2000.7500          2.3548       8592.1035       3648.3105          0.1449       4606.6523       1955.9923          0.7645          0.2960          1.8654          1.0000
 2001.0000          2.3853       9093.7461       3812.2776          0.0641       4921.3154       2063.0969          0.9077          0.5306          1.8479          1.0000
 2001.2500          2.4183       9620.2295       3977.9607          0.0032       5248.9380       2170.4128          0.9872          0.7414          1.8329          1.0000
 2001.5000          2.4392       9964.7773       4085.2190          0.0022       5462.5313       2239.4448          0.9883          0.7351          1.8242          1.0000
 2001.7500          2.4464      10090.9150       4124.7393          0.0011       5541.1128       2264.9717          0.9301          0.7707          1.8211          1.0000
 2002.0000          2.4312       9851.4063       4051.9539          0.0001       5397.9595       2220.2087          0.8747          0.8132          1.8251          1.0000
 2002.2500          2.4015       9412.6064       3919.2131          0.0092       5139.2275       2139.8552          0.9613          0.7135          1.8316          1.0000
 2002.5000          2.3718       9004.7344       3796.3992          0.0965       4901.0015       2066.2534          0.8156          0.4374          1.8374          4.0000
 2002.7500          2.3413       8602.6748       3674.1582          0.1290       4664.4941       1992.1704          0.7165          0.3015          1.8443          4.0000
 2003.0000          2.3150       8246.5977       3561.9951          0.1582       4451.0503       1922.5459          0.7516          0.2166          1.8528          4.0000
 2003.2500          2.2864       7833.7412       3426.2119          0.1835       4196.6943       1835.4874          0.7729          0.1374          1.8667          4.0000
 2003.5000          2.2789       7689.8135       3374.4097          0.1875       4101.0723       1799.6130          0.7713          0.1191          1.8751          4.0000
 2003.7500          2.2825       7668.5674       3359.7883          0.1804       4076.6755       1786.0929          0.7788          0.1548          1.8811          4.0000
 2004.0000          2.2995       7777.3467       3382.1096          0.1399       4123.1162       1793.0073          0.8418          0.3012          1.8863          4.0000
 2004.2500          2.3254       8039.3970       3457.0122          0.1231       4264.5581       1833.7927          0.9265          0.3441          1.8852          4.0000
 2004.5000          2.3607       8446.6367       3577.8066          0.0948       4490.5601       1902.0923          0.9383          0.4494          1.8810          1.0000
 2004.7500          2.3927       8836.5059       3692.8735          0.0057       4711.9697       1969.1743          0.9109          0.8276          1.8754          1.0000
 2005.0000          2.4196       9214.0117       3807.9036          0.0001       4934.2847       2039.1934          0.9227          0.9905          1.8674          1.0000
 2005.2500          2.4395       9561.2158       3919.3027          0.0001       5148.2720       2110.3538          0.9179          0.9727          1.8572          1.0000
 2005.5000          2.4544       9914.0928       4039.3167          0.0001       5379.8428       2191.9111          0.8830          0.9034          1.8429          1.0000
 2005.7500          2.4580      10112.3975       4114.0732          0.0229       5521.5405       2246.3533          0.9934          0.6094          1.8315          4.0000
 2006.0000          2.4551      10263.9238       4180.6245          0.0845       5647.1772       2300.1677          1.0000          0.3323          1.8175          4.0000
 2006.2500          2.4489      10311.1143       4210.5645          0.1002       5701.6797       2328.2986          0.9645          0.2829          1.8084          4.0000
 2006.5000          2.4321      10159.3145       4177.0493          0.0788       5632.3506       2315.7688          0.9864          0.3635          1.8037          1.0000
 2006.7500          2.4028       9750.1768       4057.6685          0.0661       5392.3931       2244.1077          1.0000          0.4197          1.8082          1.0000
 2007.0000          2.3818       9453.0537       3968.7358          0.0922       5217.8955       2190.6609          0.8872          0.3372          1.8117          4.0000
 2007.2500          2.3693       9277.1387       3915.4885          0.1236       5116.3413       2159.3909          0.7863          0.2475          1.8132          4.0000
 2007.5000          2.3579       9091.7480       3855.7830          0.1614       5007.2109       2123.5420          0.9808          0.1084          1.8157          4.0000
 2007.7500          2.3534       9005.9648       3826.7195          0.1683       4954.9038       2105.3848          1.0000          0.0860          1.8176          4.0000
 2008.0000          2.3623       9146.5381       3871.8491          0.1349       5038.1123       2132.6958          1.0000          0.1862          1.8155          4.0000
 2008.2500          2.3897       9581.7432       4009.4011          0.1060       5303.7466       2219.2930          1.0000          0.2831          1.8067          4.0000
 2008.5000          2.4115       9915.7969       4111.7153          0.0984       5505.7905       2283.0439          0.9585          0.2907          1.8010          4.0000
 2008.7500          2.4303      10182.3662       4189.7056          0.0861       5658.9805       2328.4829          0.9798          0.3448          1.7993          4.0000
 2009.0000          2.4417      10324.8457       4228.6104          0.0591       5734.7319       2348.6995          0.9970          0.4577          1.8004          1.0000
 2009.2500          2.4464      10348.1787       4229.9204          0.0347       5738.6689       2345.7373          1.0000          0.5488          1.8032          1.0000
 2009.5000          2.4412      10177.9531       4169.1270          0.0113       5623.7290       2303.6060          1.0000          0.6000          1.8098          1.0000
 2009.7500          2.4343       9979.3809       4099.4023          0.0179       5492.6357       2256.3027          1.0000          0.5888          1.8169          1.0000
 2010.0000          2.4310       9855.4414       4054.0464          0.0607       5407.8511       2224.5247          1.0000          0.4413          1.8224          4.0000
 2010.2500          2.4281       9719.9375       4003.1394          0.1031       5313.8511       2188.5002          0.9826          0.3339          1.8292          4.0000
 2010.5000          2.4286       9655.9561       3975.8979          0.1003       5262.6147       2166.9146          0.8536          0.4486          1.8348          1.0000
 2010.7500          2.4336       9666.3066       3972.0503          0.0097       5254.3145       2159.0879          1.0000          0.7290          1.8397          1.0000
 2011.0000          2.4443       9788.9844       4004.8025          0.0001       5315.9512       2174.8264          0.9843          0.9592          1.8414          1.0000
 2011.2500          2.4497       9851.9326       4021.6982          0.0001       5348.2437       2183.2288          1.0000          0.9984          1.8421          1.0000
 2011.5000          2.4497       9832.8438       4013.9756          0.0001       5333.6514       2177.3096          0.8875          0.9229          1.8435          1.0000
 2011.7500          2.4464       9760.8076       3989.8604          0.0182       5287.4512       2161.3149          0.9751          0.6577          1.8460          1.0000
