~VERSION INFORMATION
 VERS.                          2.0   : CWLS LOG ASCII STANDARD - VERSION 2.0
 WRAP.                          NO    : ONE LINE PER DEPTH STEP
#
~Well Information Section
#MNEM     .UNIT     DATA                DESCRIPTION
#-----    -----     --------            --------------
 STRT     .M        1062.0000           : START DEPTH
 STOP     .M        3300.0000           : END DEPTH
 STEP     .M        0.2500              : INCREMENT DEPTH
 NULL     .         -999.2500           : NULL VALUE
 COMP     .                             :
 WELL     .         DD-3X               : WELL NAME
 EKB      .M        32.5000             : KELLY BUSHING ELEVATION
 EGL      .M        0.0000              : GROUND LEVEL ELEVATION
 FLD      .                              :
 LOC      . X = 452044.8900 Y = 1118346.2000: WELL LOCATION
 PROV     .                              :
 SRVC     .                              :
 PROV     .                              :
 DATE     .                              :
 UWI      .         Unknown              : UNIQUE WELL ID
 API      .                              :
#
~Curve Information Section
#MNEM     .UNIT               Curve #DESCRIPTION
#-----    -----               ----   --------------
 DEPTH    .M                  : 1     Name = Domain Curve - Type = DEPTH
 RHOB     .g/cm3              : 2     Name = Density - Type = Density
 UNKNOWN  .(m/s)*(g/cc)       : 3     Name = P-Impedance_trans - Type = P-Impedance
 DT       .m/s                : 4     Name = P-wave - Type = P-wave
 UNKNOWN  .v/v                : 5     Name = PHIE - Type = Porosity
 UNKNOWN  .(m/s)*(g/cc)       : 6     Name = S-Impedance_trans - Type = S-Impedance
 SDT      .m/s                : 7     Name = S-wave - Type = S-wave
 UNKNOWN  .0.Sw               : 8     Name = SW - Type = Water Saturation
 UNKNOWN  .fraction           : 9     Name = VWCL - Type = Volumetric
 UNKNOWN  .unitless           : 10    Name = VpVs_Ratio - Type = VpVs_Ratio
 UNKNOWN  .md                 : 11    Name = lithology - Type = lithology
~A (ASCII LOG DATA)
# ...
 2049.0000          2.4488       8805.9648       3595.9553          0.0675       4532.6748       1850.9305          0.9375          0.4648          1.9428          2.0000
 2049.2500          2.4307       8603.7178       3539.5061          0.0804       4399.9165       1810.0868          0.9549          0.4485          1.9555          2.0000
 2049.5000          2.4255       8502.4805       3505.4253          0.0929       4327.3120       1784.0774          1.0000          0.3988          1.9649          3.0000
 2049.7500          2.4316       8455.9141       3477.5857          0.0908       4282.9136       1761.3960          1.0000          0.3908          1.9743          2.0000
 2050.0000          2.4382       8429.9541       3457.4316          0.0776       4251.5103       1743.7018          1.0000          0.4460          1.9828          2.0000
 2050.2500          2.4460       8420.5918       3442.6567          0.0612       4232.7041       1730.4923          1.0000          0.5237          1.9894          2.0000
 2050.5000          2.4612       8431.3311       3425.6514          0.0348       4225.3691       1716.7701          1.0000          0.5955          1.9954          2.0000
 2050.7500          2.4674       8414.0918       3410.1162          0.0317       4209.1689       1705.9186          1.0000          0.5999          1.9990          2.0000
 2051.0000          2.4628       8350.1191       3390.5496          0.0470       4170.8003       1693.5447          1.0000          0.5678          2.0020          2.0000
 2051.2500          2.4499       8249.3906       3367.2585          0.0560       4116.3936       1680.2396          1.0000          0.5522          2.0040          2.0000
 2051.5000          2.4246       8116.1450       3347.3904          0.0753       4049.6956       1670.2418          0.9960          0.5042          2.0041          2.0000
 2051.7500          2.3905       7963.0073       3331.0674          0.1132       3976.9626       1663.6372          0.9401          0.3863          2.0023          4.0000
 2052.0000          2.3803       7905.7866       3321.3779          0.1337       3955.1382       1661.6312          0.9323          0.3185          1.9989          4.0000
 2052.2500          2.3948       7946.1836       3318.0630          0.1197       3982.3818       1662.9071          0.9818          0.3626          1.9953          3.0000
 2052.5000          2.4143       8013.9990       3319.3999          0.1004       4023.8625       1666.6820          1.0000          0.4171          1.9916          2.0000
 2052.7500          2.4244       8061.4790       3325.2109          0.0949       4057.5190       1673.6515          1.0000          0.4114          1.9868          3.0000
 2053.0000          2.4148       8045.5078       3331.7527          0.1081       4058.0181       1680.4835          1.0000          0.3501          1.9826          3.0000
 2053.2500          2.3970       8004.6431       3339.4287          0.1146       4046.3342       1688.0771          1.0000          0.3439          1.9782          4.0000
 2053.5000          2.3829       7975.4180       3346.8901          0.1192       4037.4680       1694.3279          1.0000          0.3495          1.9754          4.0000
 2053.7500          2.3779       7974.8472       3353.7205          0.1249       4040.7612       1699.2906          1.0000          0.3401          1.9736          4.0000
 2054.0000          2.3869       8030.1514       3364.2991          0.1184       4069.5305       1704.9646          0.9948          0.3602          1.9732          4.0000
 2054.2500          2.4059       8118.0439       3374.1501          0.1026       4111.2378       1708.7795          0.9647          0.3957          1.9746          2.0000
 2054.5000          2.4109       8162.8716       3385.7869          0.0974       4127.4131       1711.9633          0.9733          0.3987          1.9777          3.0000
 2054.7500          2.4143       8206.9453       3399.2759          0.1075       4139.5464       1714.5829          0.9803          0.3576          1.9826          3.0000
 2055.0000          2.4339       8305.5449       3412.4119          0.0932       4178.6987       1716.8632          1.0000          0.4063          1.9876          2.0000
 2055.2500          2.4510       8399.7803       3427.1270          0.0703       4216.0703       1720.1666          1.0000          0.4901          1.9923          2.0000
 2055.5000          2.4563       8456.1367       3442.5774          0.0623       4237.7900       1725.2468          1.0000          0.5205          1.9954          2.0000
 2055.7500          2.4608       8515.4219       3460.3994          0.0501       4267.4189       1734.1443          1.0000          0.5582          1.9955          2.0000
 2056.0000          2.4685       8589.5459       3479.6086          0.0270       4311.8711       1746.7296          1.0000          0.6102          1.9921          2.0000
 2056.2500          2.4709       8656.3545       3503.3042          0.0244       4363.1919       1765.8241          1.0000          0.6157          1.9840          2.0000
 2056.5000          2.4636       8680.2783       3523.4839          0.0446       4397.9067       1785.1974          1.0000          0.5669          1.9737          2.0000
 2056.7500          2.4566       8713.9814       3547.1655          0.0570       4447.3164       1810.3508          1.0000          0.5081          1.9594          2.0000
 2057.0000          2.4582       8772.0439       3568.4529          0.0652       4511.8232       1835.4050          1.0000          0.4481          1.9443          2.0000
 2057.2500          2.4428       8758.6670       3585.5574          0.0920       4536.2168       1857.0156          0.9999          0.3400          1.9308          4.0000
 2057.5000          2.4093       8674.8203       3600.5435          0.1246       4529.0586       1879.8264          0.9731          0.2215          1.9154          4.0000
 2057.7500          2.3944       8639.7363       3608.3359          0.1308       4534.1348       1893.6603          0.9580          0.1992          1.9055          4.0000
 2058.0000          2.3907       8639.9932       3614.0659          0.1260       4555.0210       1905.3425          0.9621          0.2174          1.8968          4.0000
 2058.2500          2.3912       8642.3018       3614.1589          0.1256       4567.1523       1909.9557          0.9647          0.2121          1.8923          4.0000
 2058.5000          2.3920       8629.3203       3607.5522          0.1295       4563.2808       1907.7139          0.9785          0.1886          1.8910          4.0000
 2058.7500          2.3925       8590.5059       3590.6113          0.1323       4535.8364       1895.8634          0.9714          0.1747          1.8939          4.0000
 2059.0000          2.3891       8522.9512       3567.4202          0.1321       4485.5327       1877.4907          0.9668          0.1862          1.9001          4.0000
 2059.2500          2.3875       8449.4688       3539.0327          0.1218       4425.9160       1853.7825          0.9919          0.2390          1.9091          4.0000
 2059.5000          2.4030       8434.6748       3510.0437          0.0878       4396.0488       1829.4020          1.0000          0.3794          1.9187          1.0000
 2059.7500          2.4122       8391.5049       3478.7085          0.0729       4349.7598       1803.1951          0.9884          0.4789          1.9292          1.0000
 2060.0000          2.3930       8275.4014       3458.1050          0.0886       4273.5537       1785.8154          0.9396          0.4754          1.9364          1.0000
 2060.2500          2.3992       8272.7676       3448.1875          0.0822       4260.6367       1775.8857          0.9755          0.4908          1.9417          2.0000
 2060.5000          2.4206       8364.3643       3455.4358          0.0748       4305.5986       1778.7036          1.0000          0.4899          1.9427          2.0000
