~VERSION INFORMATION
 VERS.                          2.0   : CWLS LOG ASCII STANDARD - VERSION 2.0
 WRAP.                          NO    : ONE LINE PER DEPTH STEP
#
~Well Information Section
#MNEM     .UNIT     DATA                DESCRIPTION
#-----    -----     --------            --------------
 STRT     .M        1062.0000           : START DEPTH
 STOP     .M        3300.0000           : END DEPTH
 STEP     .M        0.2500              : INCREMENT DEPTH
 NULL     .         -999.2500           : NULL VALUE
 COMP     .                             :
 WELL     .         DD-3X               : WELL NAME
 EKB      .M        32.5000             : KELLY BUSHING ELEVATION
 EGL      .M        0.0000              : GROUND LEVEL ELEVATION
 FLD      .                              :
 LOC      . X = 452044.8900 Y = 1118346.2000: WELL LOCATION
 PROV     .                              :
 SRVC     .                              :
 PROV     .                              :
 DATE     .                              :
 UWI      .         Unknown              : UNIQUE WELL ID
 API      .                              :
#
~Curve Information Section
#MNEM     .UNIT               Curve #DESCRIPTION
#-----    -----               ----   --------------
 DEPTH    .M                  : 1     Name = Domain Curve - Type = DEPTH
 RHOB     .g/cm3              : 2     Name = Density - Type = Density
 UNKNOWN  .(m/s)*(g/cc)       : 3     Name = P-Impedance_trans - Type = P-Impedance
 DT       .m/s                : 4     Name = P-wave - Type = P-wave
 UNKNOWN  .v/v                : 5     Name = PHIE - Type = Porosity
 UNKNOWN  .(m/s)*(g/cc)       : 6     Name = S-Impedance_trans - Type = S-Impedance
 SDT      .m/s                : 7     Name = S-wave - Type = S-wave
 UNKNOWN  .0.Sw               : 8     Name = SW - Type = Water Saturation
 UNKNOWN  .fraction           : 9     Name = VWCL - Type = Volumetric
 UNKNOWN  .unitless           : 10    Name = VpVs_Ratio - Type = VpVs_Ratio
 UNKNOWN  .md                 : 11    Name = lithology - Type = lithology
~A (ASCII LOG DATA)
# ...
 2248.7500          2.3868       7768.1509       -999.2500          0.0989       -999.2500       -999.2500          0.8905          0.4282       -999.2500          4.0000
 2249.0000          2.3486       7644.0210       -999.2500          0.1386       -999.2500       -999.2500          0.7734          0.3100       -999.2500          4.0000
 2249.2500          2.3340       7596.4521       -999.2500          0.1527       -999.2500       -999.2500          0.7900          0.2705       -999.2500          4.0000
 2249.5000          2.3419       7622.2388       -999.2500          0.1507       -999.2500       -999.2500          0.8449          0.2615       -999.2500          4.0000
 2249.7500          2.3787       7741.7642       -999.2500          0.1306       -999.2500       -999.2500          0.9656          0.2826       -999.2500          3.0000
 2250.0000          2.4448       7957.0698       -999.2500          0.0885       -999.2500       -999.2500          1.0000          0.3623       -999.2500          2.0000
 2250.2500          2.4873       8095.1841       -999.2500          0.0511       -999.2500       -999.2500          1.0000          0.4743       -999.2500          2.0000
 2250.5000          2.5036       8148.2363       -999.2500          0.0351       -999.2500       -999.2500          1.0000          0.5439       -999.2500          2.0000
 2250.7500          2.5336       8246.0908       -999.2500          0.0154       -999.2500       -999.2500          1.0000          0.6407       -999.2500          2.0000
 2251.0000          2.5512       8303.4082       -999.2500          0.0014       -999.2500       -999.2500          0.9520          0.7560       -999.2500          2.0000
 2251.2500          2.5364       8255.0830       -999.2500          0.0001       -999.2500       -999.2500          0.7974          0.8596       -999.2500          2.0000
 2251.5000          2.5161       8189.2007       -999.2500          0.0001       -999.2500       -999.2500          0.9066          0.9133       -999.2500          2.0000
 2251.7500          2.4931       8114.1299       -999.2500          0.0001       -999.2500       -999.2500          0.9939          0.9752       -999.2500          2.0000
 2252.0000          2.4669       8028.9663       -999.2500          0.0001       -999.2500       -999.2500          1.0000          1.0000       -999.2500          2.0000
 2252.2500          2.4569       7996.2837       -999.2500          0.0001       -999.2500       -999.2500          1.0000          1.0000       -999.2500          2.0000
 2252.5000          2.4580       7999.8926       -999.2500          0.0001       -999.2500       -999.2500          1.0000          1.0000       -999.2500          2.0000
 2252.7500          2.4671       8029.4854       -999.2500          0.0001       -999.2500       -999.2500          1.0000          0.9990       -999.2500          2.0000
 2253.0000          2.4758       8058.0615       -999.2500          0.0001       -999.2500       -999.2500          1.0000          0.9880       -999.2500          2.0000
 2253.2500          2.4811       8075.1040       -999.2500          0.0001       -999.2500       -999.2500          1.0000          0.9728       -999.2500          2.0000
 2253.5000          2.4869       8094.0410       -999.2500          0.0001       -999.2500       -999.2500          1.0000          0.9628       -999.2500          2.0000
 2253.7500          2.4825       8079.5601       -999.2500          0.0001       -999.2500       -999.2500          1.0000          0.9212       -999.2500          2.0000
 2254.0000          2.4760       8058.4932       -999.2500          0.0001       -999.2500       -999.2500          1.0000          0.9003       -999.2500          2.0000
 2254.2500          2.4899       8103.6846       -999.2500          0.0001       -999.2500       -999.2500          1.0000          0.8611       -999.2500          2.0000
 2254.5000          2.5111       8172.7344       -999.2500          0.0001       -999.2500       -999.2500          1.0000          0.8547       -999.2500          2.0000
 2254.7500          2.5300       8234.2266       -999.2500          0.0001       -999.2500       -999.2500          1.0000          0.8668       -999.2500          2.0000
 2255.0000          2.5360       8253.9385       -999.2500          0.0001       -999.2500       -999.2500          1.0000          0.8600       -999.2500          2.0000
 2255.2500          2.5203       8202.7197       -999.2500          0.0002       -999.2500       -999.2500          1.0000          0.8152       -999.2500          2.0000
 2255.5000          2.4912       8107.9111       -999.2500          0.0011       -999.2500       -999.2500          1.0000          0.7577       -999.2500          2.0000
 2255.7500          2.4599       8006.1792       -999.2500          0.0029       -999.2500       -999.2500          1.0000          0.7256       -999.2500          2.0000
 2256.0000          2.4384       7936.1250       -999.2500          0.0113       -999.2500       -999.2500          1.0000          0.6707       -999.2500          2.0000
 2256.2500          2.4125       7851.7886       -999.2500          0.0440       -999.2500       -999.2500          1.0000          0.5822       -999.2500          1.0000
 2256.5000          2.3946       7793.7871       -999.2500          0.0680       -999.2500       -999.2500          1.0000          0.5477       -999.2500          1.0000
 2256.7500          2.3735       7724.8306       -999.2500          0.0771       -999.2500       -999.2500          1.0000          0.5398       -999.2500          1.0000
 2257.0000          2.3419       7622.2124       -999.2500          0.0804       -999.2500       -999.2500          1.0000          0.5366       -999.2500          1.0000
 2257.2500          2.3347       7598.7202       -999.2500          0.0683       -999.2500       -999.2500          1.0000          0.5493       -999.2500          1.0000
 2257.5000          2.3486       7643.7788       -999.2500          0.0515       -999.2500       -999.2500          1.0000          0.5683       -999.2500          1.0000
 2257.7500          2.3693       7711.3896       -999.2500          0.0666       -999.2500       -999.2500          1.0000          0.5510       -999.2500          1.0000
 2258.0000          2.3697       7712.4370       -999.2500          0.0864       -999.2500       -999.2500          1.0000          0.5285       -999.2500          1.0000
 2258.2500          2.3476       7640.7813       -999.2500          0.1019       -999.2500       -999.2500          1.0000          0.5021       -999.2500          1.0000
 2258.5000          2.3210       7554.2505       -999.2500          0.1186       -999.2500       -999.2500          1.0000          0.4773       -999.2500          1.0000
 2258.7500          2.3173       7542.0479       -999.2500          0.1169       -999.2500       -999.2500          1.0000          0.4920       -999.2500          1.0000
 2259.0000          2.3519       7654.8071       -999.2500          0.0819       -999.2500       -999.2500          1.0000          0.5376       -999.2500          2.0000
 2259.2500          2.4306       7910.6855       -999.2500          0.0300       -999.2500       -999.2500          1.0000          0.6106       -999.2500          2.0000
 2259.5000          2.4718       8044.8184       -999.2500          0.0117       -999.2500       -999.2500          0.9745          0.6554       -999.2500          2.0000
 2259.7500          2.4683       8033.4424       -999.2500          0.0136       -999.2500       -999.2500          0.9512          0.6471       -999.2500          2.0000
 2260.0000          2.4630       8016.1250       -999.2500          0.0178       -999.2500       -999.2500          1.0000          0.6337       -999.2500          2.0000
 2260.2500          2.4630       8016.1294       -999.2500          0.0281       -999.2500       -999.2500          1.0000          0.6068       -999.2500          2.0000
