~VERSION INFORMATION
 VERS.                          2.0   : CWLS LOG ASCII STANDARD - VERSION 2.0
 WRAP.                          NO    : ONE LINE PER DEPTH STEP
#
~Well Information Section
#MNEM     .UNIT     DATA                DESCRIPTION
#-----    -----     --------            --------------
 STRT     .M        1062.0000           : START DEPTH
 STOP     .M        3300.0000           : END DEPTH
 STEP     .M        0.2500              : INCREMENT DEPTH
 NULL     .         -999.2500           : NULL VALUE
 COMP     .                             :
 WELL     .         DD-3X               : WELL NAME
 EKB      .M        32.5000             : KELLY BUSHING ELEVATION
 EGL      .M        0.0000              : GROUND LEVEL ELEVATION
 FLD      .                              :
 LOC      . X = 452044.8900 Y = 1118346.2000: WELL LOCATION
 PROV     .                              :
 SRVC     .                              :
 PROV     .                              :
 DATE     .                              :
 UWI      .         Unknown              : UNIQUE WELL ID
 API      .                              :
#
~Curve Information Section
#MNEM     .UNIT               Curve #DESCRIPTION
#-----    -----               ----   --------------
 DEPTH    .M                  : 1     Name = Domain Curve - Type = DEPTH
 RHOB     .g/cm3              : 2     Name = Density - Type = Density
 UNKNOWN  .(m/s)*(g/cc)       : 3     Name = P-Impedance_trans - Type = P-Impedance
 DT       .m/s                : 4     Name = P-wave - Type = P-wave
 UNKNOWN  .v/v                : 5     Name = PHIE - Type = Porosity
 UNKNOWN  .(m/s)*(g/cc)       : 6     Name = S-Impedance_trans - Type = S-Impedance
 SDT      .m/s                : 7     Name = S-wave - Type = S-wave
 UNKNOWN  .0.Sw               : 8     Name = SW - Type = Water Saturation
 UNKNOWN  .fraction           : 9     Name = VWCL - Type = Volumetric
 UNKNOWN  .unitless           : 10    Name = VpVs_Ratio - Type = VpVs_Ratio
 UNKNOWN  .md                 : 11    Name = lithology - Type = lithology
~A (ASCII LOG DATA)
# ...
 1978.5000          2.2891       7011.0112       3062.7505          0.2246       3509.5278       1533.1260          0.9995          0.0425          1.9977          4.0000
 1978.7500          2.3039       7147.0723       3102.2163          0.2183       3589.3513       1557.9716          0.9824          0.0526          1.9912          4.0000
 1979.0000          2.3075       7255.2183       3144.2380          0.2159       3655.0833       1584.0253          0.9191          0.0659          1.9850          4.0000
 1979.2500          2.3108       7373.7520       3190.9617          0.2138       3727.0286       1612.8544          0.9884          0.0684          1.9785          4.0000
 1979.5000          2.3346       7554.2515       3235.7019          0.2003       3828.7837       1639.9698          0.9953          0.0716          1.9730          4.0000
 1979.7500          2.3848       7802.3550       3271.6606          0.1497       3959.0918       1660.1149          0.9113          0.1958          1.9707          4.0000
 1980.0000          2.4123       7931.8950       3288.0364          0.1152       4020.5347       1666.6481          0.9141          0.2955          1.9728          3.0000
 1980.2500          2.4074       7910.1265       3285.7566          0.1213       3999.8948       1661.4971          1.0000          0.2750          1.9776          4.0000
 1980.5000          2.3951       7815.9863       3263.3174          0.1390       3933.3740       1642.2498          1.0000          0.2230          1.9871          4.0000
 1980.7500          2.3769       7686.4053       3233.6897          0.1508       3848.5718       1619.0918          1.0000          0.2184          1.9972          4.0000
 1981.0000          2.3593       7527.5752       3190.5679          0.1277       3742.6509       1586.3267          1.0000          0.3724          2.0113          1.0000
 1981.2500          2.3725       7497.0630       3160.0254          0.0273       3709.5735       1563.5979          1.0000          0.6451          2.0210          2.0000
 1981.5000          2.3670       7430.1938       3139.0398          0.0198       3666.1155       1548.8253          1.0000          0.6861          2.0267          1.0000
 1981.7500          2.3358       7313.0527       3130.9153          0.1323       3607.6182       1544.5200          1.0000          0.4227          2.0271          4.0000
 1982.0000          2.3369       7325.0205       3134.5574          0.1591       3619.2000       1548.7402          0.9999          0.2955          2.0239          4.0000
 1982.2500          2.3681       7450.2261       3145.9949          0.1345       3692.1233       1559.0591          0.9999          0.3363          2.0179          4.0000
 1982.5000          2.3958       7560.2183       3155.5557          0.1084       3759.1606       1569.0306          1.0000          0.3961          2.0112          2.0000
 1982.7500          2.3929       7557.4277       3158.3333          0.1150       3769.8501       1575.4663          1.0000          0.3699          2.0047          4.0000
 1983.0000          2.3604       7441.6748       3152.7156          0.1463       3719.4526       1575.7759          0.9955          0.2896          2.0007          4.0000
 1983.2500          2.3253       7299.7559       3139.2043          0.1833       3651.6265       1570.3546          0.9439          0.1845          1.9990          4.0000
 1983.5000          2.3065       7195.3159       3119.6299          0.2078       3596.9199       1559.4930          0.9444          0.0977          2.0004          4.0000
 1983.7500          2.2940       7094.3384       3092.5952          0.2218       3537.9492       1542.2769          1.0000          0.0471          2.0052          4.0000
 1984.0000          2.2933       7013.4380       3058.2659          0.2236       3482.0669       1518.3865          1.0000          0.0401          2.0142          4.0000
 1984.2500          2.3075       6987.1855       3028.1145          0.2204       3451.0845       1495.6431          1.0000          0.0383          2.0246          4.0000
 1984.5000          2.3208       6949.0903       2994.3132          0.2088       3406.7195       1467.9305          0.9796          0.0815          2.0398          4.0000
 1984.7500          2.3122       6880.5356       2975.7568          0.2066       3354.3206       1450.6995          0.8803          0.1275          2.0513          4.0000
 1985.0000          2.2954       6812.1338       2967.7434          0.2082       3308.1079       1441.1942          0.8986          0.1783          2.0592          4.0000
 1985.2500          2.2701       6777.4507       2985.5247          0.2188       3290.8696       1449.6584          0.9813          0.1980          2.0595          4.0000
 1985.5000          2.2783       6886.7544       3022.5715          0.2139       3355.7295       1472.7960          1.0000          0.2214          2.0523          4.0000
 1985.7500          2.3363       7216.8364       3088.7817          0.1678       3545.0293       1517.2212          1.0000          0.3245          2.0359          3.0000
 1986.0000          2.3848       7534.1641       3159.1384          0.1355       3737.1079       1566.9792          1.0000          0.3362          2.0162          3.0000
 1986.2500          2.3967       7737.5317       3228.4275          0.1419       3878.7292       1618.3632          0.9953          0.2335          1.9949          4.0000
 1986.5000          2.4177       7943.8813       3285.5994          0.1383       4020.7124       1662.9507          0.8702          0.1769          1.9758          3.0000
 1986.7500          2.4346       8091.4805       3323.5740          0.1202       4126.1143       1694.8033          0.8892          0.2116          1.9611          3.0000
 1987.0000          2.4016       8023.3882       3340.8181          0.1361       4112.7573       1712.5120          1.0000          0.1901          1.9508          4.0000
 1987.2500          2.3399       7818.1963       3341.2791          0.1813       4019.2466       1717.7207          1.0000          0.1076          1.9452          4.0000
 1987.5000          2.3103       7693.5073       3330.0881          0.1999       3961.0544       1714.5204          1.0000          0.0912          1.9423          4.0000
 1987.7500          2.2879       7593.6782       3319.0583          0.2086       3910.8857       1709.3768          1.0000          0.0882          1.9417          4.0000
 1988.0000          2.2909       7583.3242       3310.2368          0.2088       3906.1772       1705.0967          1.0000          0.0821          1.9414          4.0000
 1988.2500          2.3661       7784.8589       3290.3174          0.1662       4029.4658       1703.0363          1.0000          0.1509          1.9320          4.0000
 1988.5000          2.4306       7971.8184       3279.8423          0.1082       4126.0352       1697.5747          1.0000          0.2899          1.9321          3.0000
 1988.7500          2.3896       7789.9609       3259.8574          0.1378       4022.6440       1683.3374          0.9132          0.2133          1.9366          4.0000
 1989.0000          2.3381       7566.1016       3235.9546          0.1895       3898.1892       1667.2151          0.8562          0.0776          1.9409          4.0000
 1989.2500          2.3378       7486.3062       3202.3655          0.1990       3844.7561       1644.6494          0.9947          0.0501          1.9472          4.0000
 1989.5000          2.3382       7412.2329       3170.0222          0.1920       3795.7881       1623.3545          1.0000          0.0772          1.9528          4.0000
 1989.7500          2.2990       7249.4902       3153.3831          0.2183       3689.3066       1604.7334          1.0000          0.0349          1.9651          4.0000
 1990.0000          2.2644       7155.8413       3160.1501          0.2429       3620.0779       1598.6924          1.0000          0.0144          1.9767          4.0000
