~VERSION INFORMATION
 VERS.                          2.0   : CWLS LOG ASCII STANDARD - VERSION 2.0
 WRAP.                          NO    : ONE LINE PER DEPTH STEP
#
~Well Information Section
#MNEM     .UNIT     DATA                DESCRIPTION
#-----    -----     --------            --------------
 STRT     .M        1062.0000           : START DEPTH
 STOP     .M        3300.0000           : END DEPTH
 STEP     .M        0.2500              : INCREMENT DEPTH
 NULL     .         -999.2500           : NULL VALUE
 COMP     .                             :
 WELL     .         DD-3X               : WELL NAME
 EKB      .M        32.5000             : KELLY BUSHING ELEVATION
 EGL      .M        0.0000              : GROUND LEVEL ELEVATION
 FLD      .                              :
 LOC      . X = 452044.8900 Y = 1118346.2000: WELL LOCATION
 PROV     .                              :
 SRVC     .                              :
 PROV     .                              :
 DATE     .                              :
 UWI      .         Unknown              : UNIQUE WELL ID
 API      .                              :
#
~Curve Information Section
#MNEM     .UNIT               Curve #DESCRIPTION
#-----    -----               ----   --------------
 DEPTH    .M                  : 1     Name = Domain Curve - Type = DEPTH
 RHOB     .g/cm3              : 2     Name = Density - Type = Density
 UNKNOWN  .(m/s)*(g/cc)       : 3     Name = P-Impedance_trans - Type = P-Impedance
 DT       .m/s                : 4     Name = P-wave - Type = P-wave
 UNKNOWN  .v/v                : 5     Name = PHIE - Type = Porosity
 UNKNOWN  .(m/s)*(g/cc)       : 6     Name = S-Impedance_trans - Type = S-Impedance
 SDT      .m/s                : 7     Name = S-wave - Type = S-wave
 UNKNOWN  .0.Sw               : 8     Name = SW - Type = Water Saturation
 UNKNOWN  .fraction           : 9     Name = VWCL - Type = Volumetric
 UNKNOWN  .unitless           : 10    Name = VpVs_Ratio - Type = VpVs_Ratio
 UNKNOWN  .md                 : 11    Name = lithology - Type = lithology
~A (ASCII LOG DATA)
# ...
 2107.7500          2.4082       8253.1523       3427.1624          0.1219       4220.6533       1752.6472          0.9225          0.2770          1.9554          4.0000
 2108.0000          2.4160       8279.9512       3427.1555          0.1071       4234.4746       1752.6923          0.8878          0.3422          1.9554          3.0000
 2108.2500          2.4211       8292.5713       3425.1785          0.0874       4235.5679       1749.4656          0.9766          0.4208          1.9578          2.0000
 2108.5000          2.4018       8226.4238       3425.1433          0.0868       4195.1846       1746.6964          0.9770          0.4495          1.9609          1.0000
 2108.7500          2.3865       8185.0176       3429.6882          0.1049       4166.1616       1745.7064          0.9077          0.4073          1.9646          4.0000
 2109.0000          2.4106       8301.6963       3443.8406          0.1067       4216.7871       1749.2789          0.9575          0.3721          1.9687          3.0000
 2109.2500          2.4270       8402.8389       3462.2048          0.0960       4260.2661       1755.3506          1.0000          0.3854          1.9724          3.0000
 2109.5000          2.4430       8510.2021       3483.4458          0.0849       4306.7358       1762.8624          1.0000          0.4137          1.9760          2.0000
 2109.7500          2.4767       8674.4316       3502.4109          0.0590       4381.8979       1769.2512          1.0000          0.4752          1.9796          2.0000
 2110.0000          2.4937       8772.5498       3517.8552          0.0441       4422.5688       1773.4833          1.0000          0.5124          1.9836          2.0000
 2110.2500          2.4965       8804.4766       3526.6624          0.0430       4430.8008       1774.7714          1.0000          0.5220          1.9871          2.0000
 2110.5000          2.4813       8759.7441       3530.2808          0.0549       4402.8613       1774.4034          0.9991          0.4922          1.9896          2.0000
 2110.7500          2.4495       8650.9463       3531.6934          0.0805       4346.9199       1774.6022          0.9835          0.4215          1.9901          3.0000
 2111.0000          2.4425       8636.7725       3535.9692          0.0951       4341.5620       1777.4719          0.9632          0.3801          1.9893          3.0000
 2111.2500          2.4681       8750.0244       3545.2485          0.0755       4402.6255       1783.8093          0.9953          0.4303          1.9875          2.0000
 2111.5000          2.4818       8827.7119       3556.9402          0.0549       4447.9702       1792.2151          1.0000          0.4974          1.9847          2.0000
 2111.7500          2.4856       8887.3818       3575.6157          0.0427       4489.5576       1806.2609          1.0000          0.5416          1.9796          2.0000
 2112.0000          2.4837       8917.0361       3590.1731          0.0444       4516.1982       1818.3113          1.0000          0.5191          1.9745          2.0000
 2112.2500          2.4779       8928.7607       3603.3030          0.0544       4535.9600       1830.5392          1.0000          0.4670          1.9684          2.0000
 2112.5000          2.4806       8948.5498       3607.3843          0.0531       4561.2847       1838.7650          1.0000          0.4636          1.9619          2.0000
 2112.7500          2.4864       8961.3779       3604.1821          0.0449       4583.0747       1843.2699          1.0000          0.4879          1.9553          2.0000
 2113.0000          2.4772       8905.3281       3594.9370          0.0495       4574.5347       1846.6732          1.0000          0.4768          1.9467          2.0000
 2113.2500          2.4491       8784.7256       3586.8782          0.0655       4533.8335       1851.2162          1.0000          0.4454          1.9376          2.0000
 2113.5000          2.4250       8688.0361       3582.6909          0.0881       4507.6475       1858.8347          0.9792          0.4007          1.9274          4.0000
 2113.7500          2.3909       8572.3125       3585.4431          0.1180       4471.1475       1870.1108          0.8623          0.3151          1.9172          4.0000
 2114.0000          2.3703       8531.4404       3599.2673          0.1387       4475.1919       1888.0107          0.8324          0.2168          1.9064          4.0000
 2114.2500          2.3794       8612.7451       3619.6389          0.1391       4537.6885       1907.0229          0.8902          0.1616          1.8981          4.0000
 2114.5000          2.4155       8814.9834       3649.2996          0.1280       4664.2891       1930.9553          0.9754          0.1398          1.8899          4.0000
 2114.7500          2.4268       8917.7236       3674.6653          0.1324       4730.4883       1949.2609          0.9834          0.1126          1.8852          4.0000
 2115.0000          2.4179       8934.5039       3695.1633          0.1381       4745.6362       1962.7174          0.9182          0.1009          1.8827          4.0000
 2115.2500          2.4190       8987.0127       3715.1230          0.1348       4772.4863       1972.8890          0.8598          0.1156          1.8831          4.0000
 2115.5000          2.4207       9021.5078       3726.8123          0.1356       4784.9375       1976.6714          0.8280          0.1178          1.8854          4.0000
 2115.7500          2.4154       9024.8594       3736.3323          0.1396       4776.9341       1977.6713          0.8550          0.1105          1.8893          4.0000
 2116.0000          2.4201       9060.3135       3743.7297          0.1309       4783.7139       1976.6403          0.9499          0.1348          1.8940          4.0000
 2116.2500          2.4486       9188.2686       3752.4758          0.1018       4838.8203       1976.1774          0.9999          0.2209          1.8989          3.0000
 2116.5000          2.4810       9343.0869       3765.8386          0.0711       4905.4678       1977.2089          1.0000          0.3302          1.9046          3.0000
 2116.7500          2.4813       9372.8252       3777.4014          0.0724       4910.2969       1978.9277          1.0000          0.3400          1.9088          3.0000
 2117.0000          2.4739       9360.7148       3783.7871          0.0804       4896.2046       1979.1426          1.0000          0.3125          1.9118          3.0000
 2117.2500          2.4721       9348.8818       3781.7324          0.0864       4886.6860       1976.7220          1.0000          0.2791          1.9131          3.0000
 2117.5000          2.4822       9356.8350       3769.5544          0.0818       4890.7759       1970.3286          1.0000          0.2791          1.9132          3.0000
 2117.7500          2.4981       9370.3438       3750.9856          0.0711       4900.4907       1961.6852          1.0000          0.3098          1.9121          3.0000
 2118.0000          2.4967       9287.3301       3719.8513          0.0796       4861.4746       1947.1659          0.9913          0.2985          1.9104          3.0000
 2118.2500          2.4465       9018.1377       3686.0330          0.1198       4723.7920       1930.7847          0.8714          0.2159          1.9091          4.0000
 2118.5000          2.3667       8646.4092       3653.2151          0.1644       4528.9395       1913.5313          0.7251          0.1158          1.9091          4.0000
 2118.7500          2.3490       8507.4180       3621.7412          0.1671       4447.1284       1893.2180          0.8142          0.0913          1.9130          4.0000
 2119.0000          2.3807       8575.4150       3602.0962          0.1491       4467.4653       1876.5753          0.9508          0.1185          1.9195          4.0000
 2119.2500          2.4222       8674.0254       3581.1279          0.1218       4492.9634       1854.9666          1.0000          0.1893          1.9306          3.0000
