~VERSION INFORMATION
 VERS.                          2.0   : CWLS LOG ASCII STANDARD - VERSION 2.0
 WRAP.                          NO    : ONE LINE PER DEPTH STEP
#
~Well Information Section
#MNEM     .UNIT     DATA                DESCRIPTION
#-----    -----     --------            --------------
 STRT     .M        1062.0000           : START DEPTH
 STOP     .M        3300.0000           : END DEPTH
 STEP     .M        0.2500              : INCREMENT DEPTH
 NULL     .         -999.2500           : NULL VALUE
 COMP     .                             :
 WELL     .         DD-3X               : WELL NAME
 EKB      .M        32.5000             : KELLY BUSHING ELEVATION
 EGL      .M        0.0000              : GROUND LEVEL ELEVATION
 FLD      .                              :
 LOC      . X = 452044.8900 Y = 1118346.2000: WELL LOCATION
 PROV     .                              :
 SRVC     .                              :
 PROV     .                              :
 DATE     .                              :
 UWI      .         Unknown              : UNIQUE WELL ID
 API      .                              :
#
~Curve Information Section
#MNEM     .UNIT               Curve #DESCRIPTION
#-----    -----               ----   --------------
 DEPTH    .M                  : 1     Name = Domain Curve - Type = DEPTH
 RHOB     .g/cm3              : 2     Name = Density - Type = Density
 UNKNOWN  .(m/s)*(g/cc)       : 3     Name = P-Impedance_trans - Type = P-Impedance
 DT       .m/s                : 4     Name = P-wave - Type = P-wave
 UNKNOWN  .v/v                : 5     Name = PHIE - Type = Porosity
 UNKNOWN  .(m/s)*(g/cc)       : 6     Name = S-Impedance_trans - Type = S-Impedance
 SDT      .m/s                : 7     Name = S-wave - Type = S-wave
 UNKNOWN  .0.Sw               : 8     Name = SW - Type = Water Saturation
 UNKNOWN  .fraction           : 9     Name = VWCL - Type = Volumetric
 UNKNOWN  .unitless           : 10    Name = VpVs_Ratio - Type = VpVs_Ratio
 UNKNOWN  .md                 : 11    Name = lithology - Type = lithology
~A (ASCII LOG DATA)
# ...
 2178.2500          2.3959       8360.2920       3489.3806          0.1125       4349.4624       1815.3533          1.0000          0.2930          1.9222          4.0000
 2178.5000          2.3832       8199.9541       3440.7063          0.1212       4238.5977       1778.5154          0.9610          0.3065          1.9346          4.0000
 2178.7500          2.3852       8037.5874       3369.8616          0.1143       4116.9463       1726.0896          0.9338          0.3595          1.9524          4.0000
 2179.0000          2.3912       7863.3364       3288.4888          0.1039       3984.1289       1666.1863          0.9933          0.4100          1.9738          1.0000
 2179.2500          2.3872       7592.9043       3180.6626          0.1115       3786.6536       1586.2181          0.9765          0.3833          2.0053          4.0000
 2179.5000          2.3712       7278.4370       3069.2764          0.1299       3563.6448       1502.7089          0.8039          0.3471          2.0429          4.0000
 2179.7500          2.3229       6850.0708       2948.6523          0.1387       3278.9604       1411.3752          0.6930          0.4081          2.0894          1.0000
 2180.0000          2.2811       6441.8979       2823.9382          0.0628       3003.5859       1316.6384          0.9714          0.5706          2.1453          1.0000
 2180.2500          2.2695       6211.9160       2737.0779          0.0059       2838.7000       1250.7706          1.0000          0.7439          2.1886          1.0000
 2180.5000          2.2596       6020.8154       2664.5662          0.0001       2705.3213       1197.2609          1.0000          0.9566          2.2256          1.0000
 2180.7500          2.2520       5963.3730       2648.0347          0.0001       2673.2039       1187.0356          1.0000          1.0000          2.2308          1.0000
 2181.0000          2.2516       6018.9092       2673.1313          0.0001       2723.1057       1209.3901          1.0000          0.9997          2.2104          1.0000
 2181.2500          2.2593       6248.8726       2765.8408          0.0001       2902.2908       1284.5764          1.0000          0.9507          2.1536          1.0000
 2181.5000          2.2698       6539.2915       2880.9397          0.0012       3122.1111       1375.4399          1.0000          0.8044          2.0953          1.0000
 2181.7500          2.2938       6974.9468       3040.5027          0.0033       3438.4875       1498.8125          1.0000          0.6758          2.0292          1.0000
 2182.0000          2.3713       7585.2988       3198.2590          0.0351       3837.0317       1617.7009          1.0000          0.5419          1.9775          1.0000
 2182.2500          2.4115       8067.4272       3345.3977          0.0961       4162.9722       1726.2866          1.0000          0.3114          1.9381          4.0000
 2182.5000          2.4016       8285.4287       3450.0723          0.1176       4329.2080       1802.7036          1.0000          0.2196          1.9139          4.0000
 2182.7500          2.3979       8416.9531       3510.1006          0.1199       4424.7813       1845.2544          1.0000          0.2019          1.9022          4.0000
 2183.0000          2.4070       8449.8359       3510.5789          0.1146       4437.5771       1843.6455          1.0000          0.2088          1.9042          4.0000
 2183.2500          2.4130       8372.0449       3469.5261          0.1108       4371.0630       1811.4443          1.0000          0.2336          1.9154          4.0000
 2183.5000          2.3926       8104.8730       3387.2544          0.1200       4188.0024       1750.2487          0.9245          0.2685          1.9354          4.0000
 2183.7500          2.3529       7781.4561       3306.9055          0.1342       3980.4092       1691.5211          0.6880          0.3280          1.9551          4.0000
 2184.0000          2.3102       7411.2593       3207.9246          0.1066       3747.3308       1622.0082          0.6649          0.4860          1.9778          1.0000
 2184.2500          2.2968       7159.2280       3117.0723          0.0165       3626.5146       1578.9564          0.9581          0.6972          1.9741          1.0000
 2184.5000          2.3054       7031.6440       3050.0381          0.0102       3578.1604       1552.0587          0.9930          0.7255          1.9652          1.0000
 2184.7500          2.3358       7089.4927       3035.1257          0.0975       3605.5847       1543.6066          0.8678          0.4503          1.9663          4.0000
 2185.0000          2.3623       7174.6504       3037.1892          0.1408       3653.9285       1546.7863          0.9576          0.2648          1.9636          4.0000
 2185.2500          2.3618       7193.5293       3045.7361          0.1538       3671.4011       1554.4722          1.0000          0.1985          1.9593          4.0000
 2185.5000          2.3180       7076.9443       3053.1233          0.1690       3618.5791       1561.1282          0.9884          0.2274          1.9557          4.0000
 2185.7500          2.2813       7015.9526       3075.5007          0.1695       3574.1001       1566.7203          0.8490          0.3240          1.9630          4.0000
 2186.0000          2.2919       7152.6362       3120.7402          0.1504       3604.8113       1572.8394          0.6024          0.4285          1.9841          1.0000
 2186.2500          2.3378       7380.7925       3157.1187          0.1278       3707.4219       1585.8375          0.5566          0.4747          1.9908          1.0000
 2186.5000          2.3517       7502.6982       3190.2905          0.1300       3780.1038       1607.3726          0.9063          0.4118          1.9848          4.0000
 2186.7500          2.3504       7610.4507       3237.9609          0.1427       3851.5076       1638.6703          1.0000          0.2953          1.9760          4.0000
 2187.0000          2.3628       7789.3340       3296.6340          0.1436       3962.4814       1677.0092          1.0000          0.2313          1.9658          4.0000
 2187.2500          2.3839       7975.0278       3345.3240          0.1359       4071.3323       1707.8163          1.0000          0.2152          1.9588          4.0000
 2187.5000          2.4137       8178.0425       3388.1943          0.1195       4180.5884       1732.0375          1.0000          0.2453          1.9562          3.0000
 2187.7500          2.4265       8236.5420       3394.4775          0.1117       4199.8960       1730.8783          1.0000          0.2751          1.9611          3.0000
 2188.0000          2.4251       8186.6499       3375.8572          0.1100       4150.2041       1711.3833          1.0000          0.2985          1.9726          3.0000
 2188.2500          2.4265       8059.8882       3321.5759          0.1052       4040.6003       1665.1715          1.0000          0.3521          1.9948          3.0000
 2188.5000          2.4086       7858.3037       3262.5503          0.1029       3895.5103       1617.2809          1.0000          0.4313          2.0174          2.0000
 2188.7500          2.3919       7626.5313       3188.4229          0.0604       3729.9441       1559.3749          1.0000          0.5563          2.0448          2.0000
 2189.0000          2.3914       7490.6021       3132.2856          0.0120       3627.5330       1516.8939          1.0000          0.6588          2.0650          2.0000
 2189.2500          2.3805       7375.1714       3098.1375          0.0067       3554.7488       1493.2654          1.0000          0.6832          2.0747          2.0000
 2189.5000          2.3660       7321.8745       3094.6240          0.0141       3534.0322       1493.6770          1.0000          0.6535          2.0718          2.0000
 2189.7500          2.3688       7388.8711       3119.2917          0.0498       3591.9998       1516.3950          1.0000          0.5756          2.0571          2.0000
