~VERSION INFORMATION
 VERS.                          2.0   : CWLS LOG ASCII STANDARD - VERSION 2.0
 WRAP.                          NO    : ONE LINE PER DEPTH STEP
#
~Well Information Section
#MNEM     .UNIT     DATA                DESCRIPTION
#-----    -----     --------            --------------
 STRT     .M        1062.0000           : START DEPTH
 STOP     .M        3300.0000           : END DEPTH
 STEP     .M        0.2500              : INCREMENT DEPTH
 NULL     .         -999.2500           : NULL VALUE
 COMP     .                             :
 WELL     .         DD-3X               : WELL NAME
 EKB      .M        32.5000             : KELLY BUSHING ELEVATION
 EGL      .M        0.0000              : GROUND LEVEL ELEVATION
 FLD      .                              :
 LOC      . X = 452044.8900 Y = 1118346.2000: WELL LOCATION
 PROV     .                              :
 SRVC     .                              :
 PROV     .                              :
 DATE     .                              :
 UWI      .         Unknown              : UNIQUE WELL ID
 API      .                              :
#
~Curve Information Section
#MNEM     .UNIT               Curve #DESCRIPTION
#-----    -----               ----   --------------
 DEPTH    .M                  : 1     Name = Domain Curve - Type = DEPTH
 RHOB     .g/cm3              : 2     Name = Density - Type = Density
 UNKNOWN  .(m/s)*(g/cc)       : 3     Name = P-Impedance_trans - Type = P-Impedance
 DT       .m/s                : 4     Name = P-wave - Type = P-wave
 UNKNOWN  .v/v                : 5     Name = PHIE - Type = Porosity
 UNKNOWN  .(m/s)*(g/cc)       : 6     Name = S-Impedance_trans - Type = S-Impedance
 SDT      .m/s                : 7     Name = S-wave - Type = S-wave
 UNKNOWN  .0.Sw               : 8     Name = SW - Type = Water Saturation
 UNKNOWN  .fraction           : 9     Name = VWCL - Type = Volumetric
 UNKNOWN  .unitless           : 10    Name = VpVs_Ratio - Type = VpVs_Ratio
 UNKNOWN  .md                 : 11    Name = lithology - Type = lithology
~A (ASCII LOG DATA)
# ...
 1637.7500          2.3281       8700.1602       3735.3081          0.1984       4554.0923       1955.1930          0.9996          0.1137          1.9105          4.0000
 1638.0000          2.2539       7977.5283       3539.2056          0.2484       4155.0342       1843.3513          1.0000          0.0669          1.9201          4.0000
 1638.2500          2.2385       7653.5864       3418.9590          0.2575       3961.2002       1769.5150          1.0000          0.0778          1.9322          4.0000
 1638.5000          2.2412       7573.4424       3379.1301          0.2525       3897.7322       1739.1034          1.0000          0.1002          1.9430          4.0000
 1638.7500          2.3097       7847.6924       3397.5344          0.2006       4029.6479       1744.5930          1.0000          0.2080          1.9475          3.0000
 1639.0000          2.4471       8494.3926       3470.9690          0.0976       4362.6714       1782.6558          1.0000          0.4136          1.9471          2.0000
 1639.2500          2.5259       8948.5488       3542.4585          0.0513       4609.2739       1824.6514          1.0000          0.4816          1.9415          2.0000
 1639.5000          2.5411       9154.0693       3602.4246          0.0658       4734.2998       1863.1055          0.9146          0.3909          1.9336          3.0000
 1639.7500          2.5117       9100.4434       3623.2285          0.1017       4723.0137       1880.4170          0.5594          0.2672          1.9268          3.0000
 1640.0000          2.4703       8908.4922       3606.0742          0.1242       4632.3599       1875.1443          0.8112          0.2096          1.9231          3.0000
 1640.2500          2.4153       8550.9795       3540.1658          0.1488       4448.7119       1841.7959          0.9332          0.1712          1.9221          4.0000
 1640.5000          2.3640       8162.3486       3452.4026          0.1741       4239.8960       1793.3188          0.9923          0.1566          1.9252          4.0000
 1640.7500          2.3185       7759.8950       3346.7109          0.2011       4014.7563       1731.4801          0.9390          0.1402          1.9329          4.0000
 1641.0000          2.2890       7421.5244       3242.1353          0.2220       3815.2771       1666.7129          1.0000          0.1289          1.9453          4.0000
 1641.2500          2.2608       7134.9487       3155.8198          0.2390       3640.8477       1610.3390          1.0000          0.1152          1.9598          4.0000
 1641.5000          2.2316       6890.5972       3087.6335          0.2575       3489.9917       1563.8300          1.0000          0.0882          1.9745          4.0000
 1641.7500          2.2316       6769.0698       3033.3330          0.2552       3402.0596       1524.5295          1.0000          0.1045          1.9897          4.0000
 1642.0000          2.2600       6770.2427       2995.7671          0.2334       3379.2051       1495.2858          1.0000          0.1597          2.0035          4.0000
 1642.2500          2.2796       6770.1973       2969.8752          0.2208       3360.2871       1474.0557          1.0000          0.1897          2.0148          4.0000
 1642.5000          2.2761       6708.8389       2947.5532          0.2254       3310.8845       1454.6471          1.0000          0.1832          2.0263          4.0000
 1642.7500          2.2679       6657.1353       2935.3201          0.2343       3273.7939       1443.5061          1.0000          0.1591          2.0335          4.0000
 1643.0000          2.2590       6612.6807       2927.2273          0.2421       3242.3916       1435.3044          1.0000          0.1366          2.0394          4.0000
 1643.2500          2.2505       6583.9980       2925.5764          0.2467       3224.4771       1432.7848          0.9991          0.1346          2.0419          4.0000
 1643.5000          2.2557       6607.2617       2929.0996          0.2412       3236.6414       1434.8512          0.9896          0.1615          2.0414          4.0000
 1643.7500          2.2744       6690.2036       2941.5728          0.2241       3285.6326       1444.6342          0.9921          0.2138          2.0362          4.0000
 1644.0000          2.2910       6779.0986       2958.9717          0.2073       3341.9094       1458.6881          1.0000          0.2523          2.0285          4.0000
 1644.2500          2.2881       6824.9321       2982.8015          0.2138       3382.8164       1478.4484          1.0000          0.2080          2.0175          4.0000
 1644.5000          2.2759       6843.7334       3007.0896          0.2341       3410.6716       1498.6262          1.0000          0.1189          2.0066          4.0000
 1644.7500          2.2707       6873.9751       3027.2371          0.2348       3441.3474       1515.5426          0.9927          0.1111          1.9975          4.0000
 1645.0000          2.2545       6852.5781       3039.5234          0.2444       3441.1733       1526.3672          0.9624          0.0960          1.9913          4.0000
 1645.2500          2.2551       6870.4922       3046.6899          0.2471       3456.7805       1532.8932          0.8599          0.0929          1.9875          4.0000
 1645.5000          2.2760       6943.0952       3050.5198          0.2356       3496.0229       1536.0122          0.8437          0.1097          1.9860          4.0000
 1645.7500          2.2950       7010.7632       3054.8406          0.2252       3531.0535       1538.6063          0.9419          0.1219          1.9855          4.0000
 1646.0000          2.2906       7021.4204       3065.2979          0.2234       3539.5977       1545.2629          0.9967          0.1371          1.9837          4.0000
 1646.2500          2.2607       6973.1030       3084.6072          0.2377       3523.4961       1558.6582          0.9737          0.1331          1.9790          4.0000
 1646.5000          2.2387       7007.8120       3130.2969          0.2507       3560.9192       1590.6161          0.9175          0.1245          1.9680          4.0000
 1646.7500          2.2637       7253.1616       3203.7798          0.2363       3715.7766       1641.2417          0.9707          0.1430          1.9522          4.0000
 1647.0000          2.3171       7629.9229       3292.6411          0.2063       3943.6511       1701.8162          1.0000          0.1649          1.9348          4.0000
 1647.2500          2.3568       8019.9282       3402.8772          0.1815       4187.5410       1776.7797          1.0000          0.1712          1.9153          4.0000
 1647.5000          2.3489       8180.2646       3482.6707          0.1840       4314.5913       1836.9121          0.9966          0.1372          1.8960          4.0000
 1647.7500          2.3631       8366.8027       3540.5095          0.1862       4471.7671       1892.2285          0.9585          0.0820          1.8711          4.0000
 1648.0000          2.4553       8790.6816       3580.2454          0.1485       4726.7056       1925.0735          0.9741          0.0868          1.8598          3.0000
 1648.2500          2.4744       8882.9873       3589.9768          0.1332       4775.8965       1930.1301          0.9101          0.1098          1.8600          3.0000
 1648.5000          2.4160       8617.6719       3566.7344          0.1572       4624.0303       1913.8030          0.6982          0.0955          1.8637          4.0000
 1648.7500          2.3629       8295.5117       3510.6321          0.1859       4430.8433       1875.1047          0.8116          0.1038          1.8722          4.0000
 1649.0000          2.3386       8073.9751       3452.3882          0.1994       4292.2759       1835.3444          0.9042          0.1232          1.8811          4.0000
 1649.2500          2.3285       7896.0864       3391.0620          0.2057       4180.6553       1795.4277          0.9498          0.1273          1.8887          4.0000
