~VERSION INFORMATION
 VERS.                          2.0   : CWLS LOG ASCII STANDARD - VERSION 2.0
 WRAP.                          NO    : ONE LINE PER DEPTH STEP
#
~Well Information Section
#MNEM     .UNIT     DATA                DESCRIPTION
#-----    -----     --------            --------------
 STRT     .M        1062.0000           : START DEPTH
 STOP     .M        3300.0000           : END DEPTH
 STEP     .M        0.2500              : INCREMENT DEPTH
 NULL     .         -999.2500           : NULL VALUE
 COMP     .                             :
 WELL     .         DD-3X               : WELL NAME
 EKB      .M        32.5000             : KELLY BUSHING ELEVATION
 EGL      .M        0.0000              : GROUND LEVEL ELEVATION
 FLD      .                              :
 LOC      . X = 452044.8900 Y = 1118346.2000: WELL LOCATION
 PROV     .                              :
 SRVC     .                              :
 PROV     .                              :
 DATE     .                              :
 UWI      .         Unknown              : UNIQUE WELL ID
 API      .                              :
#
~Curve Information Section
#MNEM     .UNIT               Curve #DESCRIPTION
#-----    -----               ----   --------------
 DEPTH    .M                  : 1     Name = Domain Curve - Type = DEPTH
 RHOB     .g/cm3              : 2     Name = Density - Type = Density
 UNKNOWN  .(m/s)*(g/cc)       : 3     Name = P-Impedance_trans - Type = P-Impedance
 DT       .m/s                : 4     Name = P-wave - Type = P-wave
 UNKNOWN  .v/v                : 5     Name = PHIE - Type = Porosity
 UNKNOWN  .(m/s)*(g/cc)       : 6     Name = S-Impedance_trans - Type = S-Impedance
 SDT      .m/s                : 7     Name = S-wave - Type = S-wave
 UNKNOWN  .0.Sw               : 8     Name = SW - Type = Water Saturation
 UNKNOWN  .fraction           : 9     Name = VWCL - Type = Volumetric
 UNKNOWN  .unitless           : 10    Name = VpVs_Ratio - Type = VpVs_Ratio
 UNKNOWN  .md                 : 11    Name = lithology - Type = lithology
~A (ASCII LOG DATA)
# ...
 1297.0000          2.4158       7526.5386       3115.4185          0.0014       3594.1172       1487.6741          0.9988          0.7575          2.0942          1.0000
 1297.2500          2.4454       7774.9263       3179.2964          0.0010       3745.3535       1531.5173          0.9921          0.7692          2.0760          1.0000
 1297.5000          2.4441       7932.0576       3245.4387          0.0005       3856.3110       1577.8510          1.0000          0.7944          2.0569          1.0000
 1297.7500          2.3956       7953.5723       3320.3079          0.0016       3907.6970       1631.3492          1.0000          0.7594          2.0354          1.0000
 1298.0000          2.3932       8095.4180       3382.4958          0.0105       4009.9229       1675.4315          1.0000          0.6773          2.0189          1.0000
 1298.2500          2.4729       8531.9414       3450.0337          0.0314       4260.1421       1722.6342          0.9925          0.5933          2.0028          1.0000
 1298.5000          2.5222       8790.9473       3485.4077          0.0289       4410.4141       1748.6204          0.9657          0.5704          1.9933          1.0000
 1298.7500          2.5100       8779.6855       3497.8198          0.0378       4417.2607       1759.8346          1.0000          0.5371          1.9876          1.0000
 1299.0000          2.4768       8614.6768       3478.1731          0.0489       4335.1445       1750.3094          0.9537          0.5343          1.9872          1.0000
 1299.2500          2.4426       8404.4863       3440.6448          0.0378       4218.0615       1726.7806          0.7753          0.5885          1.9925          1.0000
 1299.5000          2.4109       8134.5815       3373.9573          0.0095       4055.0872       1681.9053          0.9126          0.6800          2.0061          1.0000
 1299.7500          2.4059       7924.9487       3293.9990          0.0013       3912.3252       1626.1603          1.0000          0.7646          2.0258          1.0000
 1300.0000          2.4078       7709.8784       3202.0229          0.0004       3757.2432       1560.4325          1.0000          0.8023          2.0522          1.0000
 1300.2500          2.3971       7451.3013       3108.3606          0.0004       3574.9668       1491.3026          0.9999          0.8032          2.0846          1.0000
 1300.5000          2.3848       7175.6387       3008.8535          0.0006       3376.1746       1415.6700          0.9971          0.7910          2.1256          1.0000
 1300.7500          2.3820       6938.7178       2913.0254          0.0004       3194.0591       1340.9354          0.9984          0.8061          2.1729          1.0000
 1301.0000          2.3794       6689.0166       2811.1414          0.0002       2999.2437       1260.4603          1.0000          0.8546          2.2305          1.0000
 1301.2500          2.3625       6396.4434       2707.3301          0.0001       2785.3352       1178.8558          0.9828          0.9026          2.2972          1.0000
 1301.5000          2.3326       6121.7588       2624.2874          0.0001       2599.8340       1114.4604          0.9855          0.9254          2.3551          1.0000
 1301.7500          2.3033       5841.5713       2536.1772          0.0001       2412.5405       1047.4137          1.0000          0.9284          2.4215          1.0000
 1302.0000          2.2815       5673.8672       2486.8062          0.0001       2307.0881       1011.1553          1.0000          0.9259          2.4595          1.0000
 1302.2500          2.2601       5552.2402       2456.5857          0.0001       2239.1016        990.6890          1.0000          0.9249          2.4797          1.0000
 1302.5000          2.2458       5511.5327       2454.2078          0.0001       2228.8315        992.4709          1.0000          0.9168          2.4729          1.0000
 1302.7500          2.2377       5531.4258       2471.9951          0.0001       2260.5798       1010.2617          1.0000          0.8755          2.4470          1.0000
 1303.0000          2.2309       5598.6196       2509.5715          0.0003       2328.7986       1043.8796          1.0000          0.8213          2.4043          1.0000
 1303.2500          2.2742       5800.0103       2550.1646          0.0002       2452.4233       1078.2129          1.0000          0.8349          2.3653          1.0000
 1303.5000          2.3497       6083.2598       2588.8782          0.0001       2608.6997       1110.1487          1.0000          0.8584          2.3321          1.0000
 1303.7500          2.3662       6179.0264       2611.4131          0.0002       2672.0718       1129.2972          1.0000          0.8298          2.3124          1.0000
 1304.0000          2.3162       6063.3765       2617.8452          0.0004       2631.4285       1136.1157          1.0000          0.8080          2.3042          1.0000
 1304.2500          2.2827       5962.6904       2612.1055          0.0003       2585.5022       1132.6404          1.0000          0.8082          2.3062          1.0000
 1304.5000          2.2712       5894.9980       2595.4851          0.0004       2545.1614       1120.5984          1.0000          0.8066          2.3162          1.0000
 1304.7500          2.2703       5844.7144       2574.4624          0.0004       2509.5881       1105.4156          1.0000          0.8057          2.3290          1.0000
 1305.0000          2.2685       5805.7979       2559.3401          0.0003       2485.2356       1095.5536          1.0000          0.8113          2.3361          1.0000
 1305.2500          2.2711       5811.3857       2558.7993          0.0003       2495.8274       1098.9307          1.0000          0.8236          2.3285          1.0000
 1305.5000          2.2740       5870.0786       2581.3496          0.0002       2546.4480       1119.7966          1.0000          0.8265          2.3054          1.0000
 1305.7500          2.2649       5963.9351       2633.1851          0.0002       2636.7188       1164.1737          1.0000          0.8230          2.2620          1.0000
 1306.0000          2.2507       6118.1309       2718.3821          0.0005       2777.7634       1234.2178          1.0000          0.8041          2.2031          1.0000
 1306.2500          2.2540       6363.0430       2822.9407          0.0018       2969.5078       1317.3813          1.0000          0.7561          2.1434          1.0000
 1306.5000          2.2769       6740.9077       2960.3716          0.0124       3241.6367       1423.5521          1.0000          0.6703          2.0801          1.0000
 1306.7500          2.3257       7203.7104       3097.0039          0.0583       3548.0552       1525.2656          0.9924          0.5632          2.0308          1.0000
 1307.0000          2.3773       7688.3970       3233.7832          0.0856       3860.2292       1623.5713          0.9253          0.5022          1.9920          1.0000
 1307.2500          2.4057       8049.1270       3345.8081          0.0883       4091.8367       1700.8567          0.8872          0.4534          1.9672          1.0000
 1307.5000          2.4249       8338.9854       3438.8057          0.0790       4272.4297       1761.8413          0.8888          0.4624          1.9519          1.0000
 1307.7500          2.4418       8524.5205       3491.1228          0.0720       4379.1646       1793.4369          0.9994          0.4845          1.9466          1.0000
 1308.0000          2.4449       8615.2490       3523.7788          0.0688       4426.0303       1810.3195          0.9263          0.5009          1.9465          1.0000
 1308.2500          2.4476       8637.4766       3528.9558          0.0656       4430.7344       1810.2361          0.8477          0.5161          1.9494          1.0000
 1308.5000          2.4479       8625.8340       3523.6980          0.0692       4418.6597       1805.0450          0.9781          0.5176          1.9521          1.0000
