~VERSION INFORMATION
 VERS.                          2.0   : CWLS LOG ASCII STANDARD - VERSION 2.0
 WRAP.                          NO    : ONE LINE PER DEPTH STEP
#
~Well Information Section
#MNEM     .UNIT     DATA                DESCRIPTION
#-----    -----     --------            --------------
 STRT     .M        1062.0000           : START DEPTH
 STOP     .M        3300.0000           : END DEPTH
 STEP     .M        0.2500              : INCREMENT DEPTH
 NULL     .         -999.2500           : NULL VALUE
 COMP     .                             :
 WELL     .         DD-3X               : WELL NAME
 EKB      .M        32.5000             : KELLY BUSHING ELEVATION
 EGL      .M        0.0000              : GROUND LEVEL ELEVATION
 FLD      .                              :
 LOC      . X = 452044.8900 Y = 1118346.2000: WELL LOCATION
 PROV     .                              :
 SRVC     .                              :
 PROV     .                              :
 DATE     .                              :
 UWI      .         Unknown              : UNIQUE WELL ID
 API      .                              :
#
~Curve Information Section
#MNEM     .UNIT               Curve #DESCRIPTION
#-----    -----               ----   --------------
 DEPTH    .M                  : 1     Name = Domain Curve - Type = DEPTH
 RHOB     .g/cm3              : 2     Name = Density - Type = Density
 UNKNOWN  .(m/s)*(g/cc)       : 3     Name = P-Impedance_trans - Type = P-Impedance
 DT       .m/s                : 4     Name = P-wave - Type = P-wave
 UNKNOWN  .v/v                : 5     Name = PHIE - Type = Porosity
 UNKNOWN  .(m/s)*(g/cc)       : 6     Name = S-Impedance_trans - Type = S-Impedance
 SDT      .m/s                : 7     Name = S-wave - Type = S-wave
 UNKNOWN  .0.Sw               : 8     Name = SW - Type = Water Saturation
 UNKNOWN  .fraction           : 9     Name = VWCL - Type = Volumetric
 UNKNOWN  .unitless           : 10    Name = VpVs_Ratio - Type = VpVs_Ratio
 UNKNOWN  .md                 : 11    Name = lithology - Type = lithology
~A (ASCII LOG DATA)
# ...
 1837.5000          2.4856       9455.1143       3804.0039          0.0062       4922.6016       1980.4729          0.9304          0.6857          1.9208          2.0000
 1837.7500          2.4852       9451.2158       3803.0313          0.0112       4930.5615       1983.9865          0.5226          0.6585          1.9169          2.0000
 1838.0000          2.4817       9418.6504       3795.2520          0.0166       4922.9209       1983.6953          0.9079          0.6339          1.9132          2.0000
 1838.2500          2.4790       9354.5752       3773.5315          0.0227       4900.0391       1976.6218          0.8883          0.6004          1.9091          2.0000
 1838.5000          2.4663       9213.3906       3735.7192          0.0429       4834.2104       1960.1113          0.6681          0.5229          1.9059          2.0000
 1838.7500          2.4522       9026.3760       3680.9583          0.0565       4742.0039       1933.7915          0.9932          0.4895          1.9035          2.0000
 1839.0000          2.4396       8832.4346       3620.3518          0.0730       4642.9961       1903.1316          0.9898          0.4622          1.9023          3.0000
 1839.2500          2.3905       8483.7266       3548.7344          0.1281       4461.5430       1866.2607          0.9677          0.3520          1.9015          4.0000
 1839.5000          2.3222       8109.2422       3491.8726          0.1784       4265.8403       1836.8904          1.0000          0.2643          1.9010          4.0000
 1839.7500          2.2768       7855.9595       3450.4114          0.2088       4134.0425       1815.7115          1.0000          0.2065          1.9003          4.0000
 1840.0000          2.2561       7745.0605       3432.8777          0.2270       4078.4998       1807.7319          1.0000          0.1316          1.8990          4.0000
 1840.2500          2.2800       7839.4121       3438.2239          0.2031       4131.4429       1811.9708          1.0000          0.1546          1.8975          4.0000
 1840.5000          2.3400       8099.1445       3461.0767          0.1568       4271.9795       1825.5796          1.0000          0.2402          1.8959          4.0000
 1840.7500          2.3809       8300.8057       3486.2969          0.1220       4380.4990       1839.7869          1.0000          0.3162          1.8949          3.0000
 1841.0000          2.4250       8508.8281       3508.7026          0.0758       4490.1646       1851.5662          1.0000          0.4486          1.8950          2.0000
 1841.2500          2.4303       8556.1445       3520.6614          0.0672       4512.8057       1856.9164          1.0000          0.5125          1.8960          2.0000
 1841.5000          2.3905       8415.8428       3520.5012          0.0982       4436.1777       1855.7316          1.0000          0.4642          1.8971          1.0000
 1841.7500          2.3630       8299.3770       3512.2202          0.1205       4370.7056       1849.6411          1.0000          0.4170          1.8989          4.0000
 1842.0000          2.3410       8195.0723       3500.6799          0.1449       4312.6470       1842.2275          1.0000          0.3459          1.9002          4.0000
 1842.2500          2.3225       8108.2104       3491.1563          0.1624       4265.1519       1836.4482          1.0000          0.2906          1.9010          4.0000
 1842.5000          2.3239       8101.9087       3486.2908          0.1586       4260.6152       1833.3639          1.0000          0.2902          1.9016          4.0000
 1842.7500          2.3552       8207.8633       3485.0220          0.1351       4314.9082       1832.0917          1.0000          0.3267          1.9022          4.0000
 1843.0000          2.3968       8351.2275       3484.2661          0.1073       4388.0723       1830.7772          1.0000          0.3773          1.9032          2.0000
 1843.2500          2.4209       8418.4775       3477.4829          0.0952       4419.3765       1825.5444          1.0000          0.4076          1.9049          3.0000
 1843.5000          2.4045       8317.8711       3459.3108          0.1123       4360.5596       1813.5046          1.0000          0.3784          1.9075          3.0000
 1843.7500          2.3689       8145.2358       3438.2935          0.1414       4264.5674       1800.1678          1.0000          0.3247          1.9100          4.0000
 1844.0000          2.3172       7903.0928       3410.6526          0.1640       4132.0781       1783.2339          1.0000          0.3133          1.9126          4.0000
 1844.2500          2.2979       7791.4824       3390.7297          0.1676       4070.4539       1771.3965          1.0000          0.3306          1.9142          4.0000
 1844.5000          2.2987       7755.6143       3373.8503          0.1801       4049.1292       1761.4539          1.0000          0.2789          1.9154          4.0000
 1844.7500          2.3084       7764.8398       3363.7141          0.1916       4052.5474       1755.5559          1.0000          0.2021          1.9160          4.0000
 1845.0000          2.3437       7877.6782       3361.2703          0.1615       4111.9985       1754.5177          0.9887          0.2548          1.9158          4.0000
 1845.2500          2.3760       7987.4556       3361.6948          0.1278       4170.9014       1755.4148          0.9877          0.3461          1.9150          4.0000
 1845.5000          2.3609       7940.4048       3363.2515          0.1360       4148.7974       1757.2726          1.0000          0.3362          1.9139          4.0000
 1845.7500          2.3443       7894.2842       3367.4282          0.1542       4128.5396       1761.0948          1.0000          0.3000          1.9121          4.0000
 1846.0000          2.3117       7811.7681       3379.2893          0.1836       4091.6501       1770.0118          1.0000          0.2461          1.9092          4.0000
 1846.2500          2.2826       7794.4995       3414.7253          0.2005       4095.4358       1794.1912          1.0000          0.2216          1.9032          4.0000
 1846.5000          2.2839       7912.3169       3464.3667          0.1925       4172.0786       1826.7159          1.0000          0.2439          1.8965          4.0000
 1846.7500          2.3077       8168.1816       3539.5122          0.1665       4328.0122       1875.4451          1.0000          0.2856          1.8873          4.0000
 1847.0000          2.3641       8569.7129       3624.5679          0.1152       4563.9360       1930.2738          1.0000          0.3574          1.8778          3.0000
 1847.2500          2.4483       9063.8828       3701.9001          0.0531       4847.8525       1979.9458          1.0000          0.4383          1.8697          2.0000
 1847.5000          2.5224       9554.6768       3787.8718          0.0172       5132.8945       2034.8851          0.9760          0.4670          1.8615          2.0000
 1847.7500          2.5132       9654.3252       3841.5559          0.0409       5201.0889       2069.5815          0.8913          0.4076          1.8562          3.0000
 1848.0000          2.4412       9483.1709       3884.7129          0.1012       5120.9629       2097.7815          1.0000          0.3051          1.8518          4.0000
 1848.2500          2.3439       9185.0811       3918.7610          0.1631       4968.5352       2119.8027          1.0000          0.2094          1.8486          4.0000
 1848.5000          2.3432       9264.7344       3953.7849          0.1534       5017.6992       2141.3293          1.0000          0.2360          1.8464          4.0000
 1848.7500          2.4005       9586.3379       3993.3035          0.1117       5198.3047       2165.4080          1.0000          0.2973          1.8441          3.0000
 1849.0000          2.4692       9970.5859       4037.8760          0.0676       5414.5215       2192.7576          1.0000          0.3408          1.8415          3.0000
