~VERSION INFORMATION
 VERS.                          2.0   : CWLS LOG ASCII STANDARD - VERSION 2.0
 WRAP.                          NO    : ONE LINE PER DEPTH STEP
#
~Well Information Section
#MNEM     .UNIT     DATA                DESCRIPTION
#-----    -----     --------            --------------
 STRT     .M        1062.0000           : START DEPTH
 STOP     .M        3300.0000           : END DEPTH
 STEP     .M        0.2500              : INCREMENT DEPTH
 NULL     .         -999.2500           : NULL VALUE
 COMP     .                             :
 WELL     .         DD-3X               : WELL NAME
 EKB      .M        32.5000             : KELLY BUSHING ELEVATION
 EGL      .M        0.0000              : GROUND LEVEL ELEVATION
 FLD      .                              :
 LOC      . X = 452044.8900 Y = 1118346.2000: WELL LOCATION
 PROV     .                              :
 SRVC     .                              :
 PROV     .                              :
 DATE     .                              :
 UWI      .         Unknown              : UNIQUE WELL ID
 API      .                              :
#
~Curve Information Section
#MNEM     .UNIT               Curve #DESCRIPTION
#-----    -----               ----   --------------
 DEPTH    .M                  : 1     Name = Domain Curve - Type = DEPTH
 RHOB     .g/cm3              : 2     Name = Density - Type = Density
 UNKNOWN  .(m/s)*(g/cc)       : 3     Name = P-Impedance_trans - Type = P-Impedance
 DT       .m/s                : 4     Name = P-wave - Type = P-wave
 UNKNOWN  .v/v                : 5     Name = PHIE - Type = Porosity
 UNKNOWN  .(m/s)*(g/cc)       : 6     Name = S-Impedance_trans - Type = S-Impedance
 SDT      .m/s                : 7     Name = S-wave - Type = S-wave
 UNKNOWN  .0.Sw               : 8     Name = SW - Type = Water Saturation
 UNKNOWN  .fraction           : 9     Name = VWCL - Type = Volumetric
 UNKNOWN  .unitless           : 10    Name = VpVs_Ratio - Type = VpVs_Ratio
 UNKNOWN  .md                 : 11    Name = lithology - Type = lithology
~A (ASCII LOG DATA)
# ...
 1767.0000          2.2734       6285.8789       2764.9387          0.2422       3176.9106       1397.4121          0.6505          0.1602          1.9786          5.0000
 1767.2500          2.2663       6266.2822       2764.9539          0.2479       3157.0664       1393.0245          0.6912          0.1441          1.9849          5.0000
 1767.5000          2.2501       6245.0981       2775.4236          0.2529       3114.2239       1384.0100          0.6607          0.1358          2.0054          5.0000
 1767.7500          2.2425       6197.4395       2763.6143          0.2499       3084.0796       1375.2780          0.6145          0.1631          2.0095          5.0000
 1768.0000          2.2418       6162.7690       2748.9714          0.2474       3060.5991       1365.2142          0.6719          0.1824          2.0136          4.0000
 1768.2500          2.2451       6172.9360       2749.5723          0.2470       3044.1279       1355.9276          0.6923          0.1885          2.0278          5.0000
 1768.5000          2.2436       6213.0449       2769.2615          0.2504       3024.6992       1348.1576          0.6710          0.1847          2.0541          5.0000
 1768.7500          2.2387       6250.8169       2792.1545          0.2580       3010.6030       1344.7905          0.6651          0.1621          2.0763          5.0000
 1769.0000          2.2287       6248.8164       2803.7354          0.2687       3001.8232       1346.8671          0.6341          0.1224          2.0817          5.0000
 1769.2500          2.2245       6252.0093       2810.5803          0.2676       3011.1680       1353.6652          0.6395          0.1178          2.0763          5.0000
 1769.5000          2.2287       6288.1406       2821.3845          0.2578       3038.3770       1363.2684          0.6649          0.1335          2.0696          5.0000
 1769.7500          2.2297       6333.9541       2840.7581          0.2558       3076.3494       1379.7338          0.6613          0.1342          2.0589          5.0000
 1770.0000          2.2297       6383.9277       2863.0759          0.2584       3117.2368       1398.0204          0.6676          0.1132          2.0480          5.0000
 1770.2500          2.2463       6510.0962       2898.1216          0.2473       3202.0200       1425.4453          0.7034          0.1279          2.0332          4.0000
 1770.5000          2.2557       6632.8374       2940.5627          0.2479       3287.2354       1457.3522          0.6846          0.1321          2.0178          5.0000
 1770.7500          2.2331       6673.2344       2988.3745          0.2646       3333.2683       1492.7031          0.6378          0.0912          2.0020          5.0000
 1771.0000          2.2221       6780.3130       3051.2632          0.2654       3417.6780       1538.0093          0.6796          0.0583          1.9840          4.0000
 1771.2500          2.2510       6995.1069       3107.3550          0.2430       3550.3804       1577.1158          0.9261          0.0672          1.9703          4.0000
 1771.5000          2.3031       7286.2998       3163.6169          0.2137       3719.0520       1614.7441          1.0000          0.0898          1.9592          4.0000
 1771.7500          2.3578       7555.0337       3204.2061          0.1936       3868.7695       1640.8003          0.9990          0.1120          1.9528          4.0000
 1772.0000          2.3674       7642.5864       3228.2437          0.1950       3918.8591       1655.3339          0.9950          0.1124          1.9502          4.0000
 1772.2500          2.3518       7603.2393       3232.9231          0.2041       3897.2915       1657.1399          1.0000          0.0982          1.9509          4.0000
 1772.5000          2.3371       7532.1807       3222.8992          0.2129       3852.2371       1648.3076          1.0000          0.0911          1.9553          4.0000
 1772.7500          2.3148       7412.8916       3202.3552          0.2253       3781.0664       1633.4050          1.0000          0.0875          1.9605          4.0000
 1773.0000          2.2933       7289.2549       3178.5322          0.2338       3708.0583       1616.9241          1.0000          0.0898          1.9658          4.0000
 1773.2500          2.2869       7220.8247       3157.4854          0.2356       3666.8828       1603.4355          1.0000          0.0934          1.9692          4.0000
 1773.5000          2.2908       7217.5234       3150.6064          0.2324       3664.2534       1599.5261          1.0000          0.0973          1.9697          4.0000
 1773.7500          2.3005       7272.0239       3161.0432          0.2272       3698.5911       1607.7228          1.0000          0.1019          1.9662          4.0000
 1774.0000          2.3036       7358.8301       3194.4851          0.2264       3760.2688       1632.3407          1.0000          0.0951          1.9570          4.0000
 1774.2500          2.3026       7498.2847       3256.4028          0.2279       3860.8118       1676.6997          1.0000          0.0838          1.9422          4.0000
 1774.5000          2.3051       7760.2451       3366.4487          0.2225       4041.4634       1753.2023          1.0000          0.0865          1.9203          4.0000
 1774.7500          2.3295       8174.0972       3508.6279          0.2059       4306.2964       1848.3809          0.9507          0.1024          1.8984          4.0000
 1775.0000          2.3594       8730.5049       3700.0037          0.1924       4654.0488       1972.3683          0.8352          0.1016          1.8761          4.0000
 1775.2500          2.3821       9347.2598       3923.6780          0.1764       5032.1587       2112.3198          0.9980          0.0812          1.8576          4.0000
 1775.5000          2.4273      10103.2217       4161.3755          0.1445       5473.3760       2254.3687          1.0000          0.0635          1.8460          3.0000
 1775.7500          2.5249      11018.7217       4363.0347          0.0944       5981.1924       2368.3420          1.0000          0.0760          1.8422          3.0000
 1776.0000          2.6319      12005.0498       4560.9893          0.0470       6505.2046       2471.4934          1.0000          0.1277          1.8454          3.0000
 1776.2500          2.6733      12470.1406       4664.6416          0.0281       6732.8320       2518.5227          1.0000          0.1660          1.8521          3.0000
 1776.5000          2.6521      12502.7363       4714.2622          0.0283       6715.6699       2532.1895          0.9587          0.2054          1.8617          3.0000
 1776.7500          2.5928      12162.5566       4690.7656          0.0143       6492.0649       2503.7661          0.8466          0.3688          1.8735          2.0000
 1777.0000          2.5652      11887.1768       4633.9502          0.0007       6309.5981       2459.6487          1.0000          0.6538          1.8840          2.0000
 1777.2500          2.5562      11603.5225       4539.3755          0.0001       6126.1436       2396.5862          1.0000          0.7096          1.8941          2.0000
 1777.5000          2.5582      11402.7266       4457.3291          0.0001       6003.3071       2346.6978          1.0000          0.6171          1.8994          2.0000
 1777.7500          2.5750      11272.9434       4377.8184          0.0001       5922.5947       2300.0281          0.9991          0.5520          1.9034          2.0000
 1778.0000          2.5857      11157.9541       4315.1729          0.0001       5852.9189       2263.5291          0.8807          0.5204          1.9064          2.0000
 1778.2500          2.5701      10989.8115       4276.0161          0.0015       5760.1196       2241.1987          0.7978          0.5190          1.9079          2.0000
 1778.5000          2.5454      10825.9180       4253.0986          0.0016       5673.7153       2228.9912          0.9506          0.5658          1.9081          2.0000
