~VERSION INFORMATION
 VERS.                          2.0   : CWLS LOG ASCII STANDARD - VERSION 2.0
 WRAP.                          NO    : ONE LINE PER DEPTH STEP
#
~Well Information Section
#MNEM     .UNIT     DATA                DESCRIPTION
#-----    -----     --------            --------------
 STRT     .M        1062.0000           : START DEPTH
 STOP     .M        3300.0000           : END DEPTH
 STEP     .M        0.2500              : INCREMENT DEPTH
 NULL     .         -999.2500           : NULL VALUE
 COMP     .                             :
 WELL     .         DD-3X               : WELL NAME
 EKB      .M        32.5000             : KELLY BUSHING ELEVATION
 EGL      .M        0.0000              : GROUND LEVEL ELEVATION
 FLD      .                              :
 LOC      . X = 452044.8900 Y = 1118346.2000: WELL LOCATION
 PROV     .                              :
 SRVC     .                              :
 PROV     .                              :
 DATE     .                              :
 UWI      .         Unknown              : UNIQUE WELL ID
 API      .                              :
#
~Curve Information Section
#MNEM     .UNIT               Curve #DESCRIPTION
#-----    -----               ----   --------------
 DEPTH    .M                  : 1     Name = Domain Curve - Type = DEPTH
 RHOB     .g/cm3              : 2     Name = Density - Type = Density
 UNKNOWN  .(m/s)*(g/cc)       : 3     Name = P-Impedance_trans - Type = P-Impedance
 DT       .m/s                : 4     Name = P-wave - Type = P-wave
 UNKNOWN  .v/v                : 5     Name = PHIE - Type = Porosity
 UNKNOWN  .(m/s)*(g/cc)       : 6     Name = S-Impedance_trans - Type = S-Impedance
 SDT      .m/s                : 7     Name = S-wave - Type = S-wave
 UNKNOWN  .0.Sw               : 8     Name = SW - Type = Water Saturation
 UNKNOWN  .fraction           : 9     Name = VWCL - Type = Volumetric
 UNKNOWN  .unitless           : 10    Name = VpVs_Ratio - Type = VpVs_Ratio
 UNKNOWN  .md                 : 11    Name = lithology - Type = lithology
~A (ASCII LOG DATA)
# ...
 1226.5000          2.2208       -999.2500       -999.2500          0.2558       -999.2500       -999.2500          0.9585          0.0962       -999.2500          4.0000
 1226.7500          2.2202       6951.6992       3131.0591          0.2519       3573.8933       1609.6809          0.9755          0.1052          1.9452          4.0000
 1227.0000          2.2588       7204.5532       3189.2783          0.2224       3721.8840       1647.5640          0.9962          0.1477          1.9358          4.0000
 1227.2500          2.3304       7536.0034       3233.6907          0.1819       3902.2742       1674.4545          1.0000          0.1905          1.9312          4.0000
 1227.5000          2.3707       7748.1221       3268.2766          0.1600       4014.2454       1693.2712          0.9896          0.2113          1.9302          4.0000
 1227.7500          2.3802       7798.8574       3276.5962          0.1580       4035.1191       1695.3055          0.8770          0.2108          1.9327          4.0000
 1228.0000          2.3492       7659.5449       3260.4114          0.1813       3950.2629       1681.4816          0.7793          0.1904          1.9390          4.0000
 1228.2500          2.2863       7353.6436       3216.2483          0.2118       3772.8298       1650.0763          0.8702          0.1866          1.9492          4.0000
 1228.5000          2.2606       7146.3691       3161.2783          0.2167       3643.8225       1611.8911          0.9867          0.2099          1.9612          4.0000
 1228.7500          2.3148       7124.5049       3078.0027          0.1800       3599.2957       1555.0437          0.9333          0.2771          1.9794          4.0000
 1229.0000          2.3276       6987.6934       3001.8284          0.1822       3500.4771       1503.7129          0.8855          0.2730          1.9964          4.0000
 1229.2500          2.2433       6525.5854       2908.5083          0.2389       3232.3447       1440.6104          0.7963          0.1839          2.0190          4.0000
 1229.5000          2.1577       6089.9692       2822.2507          0.2925       2979.1890       1380.5824          0.7118          0.1070          2.0444          4.0000
 1229.7500          2.1257       5842.2681       2748.3286          0.3119       2821.9783       1327.5034          0.8365          0.0898          2.0704          4.0000
 1230.0000          2.1270       5713.4707       2686.2346          0.3039       2725.7627       1281.5530          0.9874          0.1333          2.0962          4.0000
 1230.2500          2.1454       5646.9902       2632.2009          0.2909       2661.2847       1240.5004          0.9407          0.1704          2.1220          4.0000
 1230.5000          2.1461       5557.7192       2589.7144          0.2929       2591.8550       1207.7107          0.7923          0.1730          2.1444          4.0000
 1230.7500          2.1333       5459.7246       2559.2827          0.2992       2524.9343       1183.5773          0.6912          0.1766          2.1623          4.0000
 1231.0000          2.1288       5408.8413       2540.7522          0.3025       2488.2910       1168.8506          0.7417          0.1727          2.1737          4.0000
 1231.2500          2.1249       5384.6494       2534.0364          0.3076       2473.2139       1163.9036          0.8209          0.1543          2.1772          4.0000
 1231.5000          2.1180       5364.2432       2532.6755          0.3124       2464.7957       1163.7296          0.8222          0.1418          2.1763          4.0000
 1231.7500          2.1140       5360.2681       2535.5757          0.3161       2467.0120       1166.9747          0.7964          0.1313          2.1728          4.0000
 1232.0000          2.1124       5366.9277       2540.7295          0.3178       2475.7437       1172.0291          0.8105          0.1255          2.1678          4.0000
 1232.2500          2.1126       5381.3599       2547.2705          0.3145       2487.9368       1177.6665          0.8383          0.1324          2.1630          4.0000
 1232.5000          2.1179       5398.8350       2549.1238          0.3058       2496.6895       1178.8422          0.8339          0.1551          2.1624          4.0000
 1232.7500          2.1292       5421.4561       2546.2742          0.2954       2502.2314       1175.2152          0.8312          0.1829          2.1666          4.0000
 1233.0000          2.1362       5423.9849       2539.1245          0.2921       2494.7263       1167.8534          0.8675          0.1922          2.1742          4.0000
 1233.2500          2.1308       5389.0024       2529.0444          0.2991       2466.8640       1157.6893          0.8394          0.1739          2.1846          4.0000
 1233.5000          2.1217       5342.5444       2518.0166          0.3114       2432.9934       1146.7023          0.6964          0.1376          2.1959          4.0000
 1233.7500          2.1217       5319.5161       2507.1780          0.3126       2409.3242       1135.5566          0.6791          0.1423          2.2079          4.0000
 1234.0000          2.1303       5330.7500       2502.3569          0.3050       2406.9290       1129.8606          0.7338          0.1691          2.2148          4.0000
 1234.2500          2.1412       5363.3574       2504.8916          0.2982       2421.3645       1130.8688          0.8116          0.1776          2.2150          4.0000
 1234.5000          2.1439       5396.1104       2517.0007          0.2970       2444.6865       1140.3170          0.8027          0.1711          2.2073          4.0000
 1234.7500          2.1440       5431.5576       2533.3657          0.2956       2473.9988       1153.9127          0.8042          0.1759          2.1955          4.0000
 1235.0000          2.1457       5497.1528       2561.9644          0.2942       2527.8142       1178.0933          0.8534          0.1784          2.1747          4.0000
 1235.2500          2.1498       5566.3101       2589.2410          0.2939       2582.9150       1201.4739          0.8260          0.1623          2.1551          4.0000
 1235.5000          2.1505       5631.7354       2618.8640          0.2963       2639.0964       1227.2305          0.7850          0.1336          2.1340          4.0000
 1235.7500          2.1527       5696.5278       2646.2639          0.2963       2692.9395       1250.9751          0.8362          0.1122          2.1154          4.0000
 1236.0000          2.1590       5751.9771       2664.1846          0.2918       2734.0017       1266.3248          0.8956          0.1114          2.1039          4.0000
 1236.2500          2.1634       5789.8804       2676.3367          0.2884       2761.8462       1276.6462          0.8841          0.1161          2.0964          4.0000
 1236.5000          2.1574       5779.7476       2678.9924          0.2923       2758.8855       1278.7810          0.8422          0.1151          2.0950          4.0000
 1236.7500          2.1472       5743.8511       2675.0381          0.2985       2738.0186       1275.1542          0.8162          0.1154          2.0978          4.0000
 1237.0000          2.1466       5726.0088       2667.4531          0.2984       2722.8025       1268.4154          0.8433          0.1248          2.1030          4.0000
 1237.2500          2.1576       5736.9258       2658.9668          0.2902       2720.3499       1260.8372          0.8296          0.1435          2.1089          4.0000
 1237.5000          2.1636       5744.6899       2655.1267          0.2866       2719.8726       1257.0925          0.8167          0.1476          2.1121          4.0000
 1237.7500          2.1649       5751.1548       2656.5305          0.2873       2722.2266       1257.4304          0.8250          0.1439          2.1127          4.0000
 1238.0000          2.1623       5764.8657       2666.0439          0.2916       2732.8682       1263.8550          0.7871          0.1331          2.1095          4.0000
