~VERSION INFORMATION
 VERS.                          2.0   : CWLS LOG ASCII STANDARD - VERSION 2.0
 WRAP.                          NO    : ONE LINE PER DEPTH STEP
#
~Well Information Section
#MNEM     .UNIT     DATA                DESCRIPTION
#-----    -----     --------            --------------
 STRT     .M        1062.0000           : START DEPTH
 STOP     .M        3300.0000           : END DEPTH
 STEP     .M        0.2500              : INCREMENT DEPTH
 NULL     .         -999.2500           : NULL VALUE
 COMP     .                             :
 WELL     .         DD-3X               : WELL NAME
 EKB      .M        32.5000             : KELLY BUSHING ELEVATION
 EGL      .M        0.0000              : GROUND LEVEL ELEVATION
 FLD      .                              :
 LOC      . X = 452044.8900 Y = 1118346.2000: WELL LOCATION
 PROV     .                              :
 SRVC     .                              :
 PROV     .                              :
 DATE     .                              :
 UWI      .         Unknown              : UNIQUE WELL ID
 API      .                              :
#
~Curve Information Section
#MNEM     .UNIT               Curve #DESCRIPTION
#-----    -----               ----   --------------
 DEPTH    .M                  : 1     Name = Domain Curve - Type = DEPTH
 RHOB     .g/cm3              : 2     Name = Density - Type = Density
 UNKNOWN  .(m/s)*(g/cc)       : 3     Name = P-Impedance_trans - Type = P-Impedance
 DT       .m/s                : 4     Name = P-wave - Type = P-wave
 UNKNOWN  .v/v                : 5     Name = PHIE - Type = Porosity
 UNKNOWN  .(m/s)*(g/cc)       : 6     Name = S-Impedance_trans - Type = S-Impedance
 SDT      .m/s                : 7     Name = S-wave - Type = S-wave
 UNKNOWN  .0.Sw               : 8     Name = SW - Type = Water Saturation
 UNKNOWN  .fraction           : 9     Name = VWCL - Type = Volumetric
 UNKNOWN  .unitless           : 10    Name = VpVs_Ratio - Type = VpVs_Ratio
 UNKNOWN  .md                 : 11    Name = lithology - Type = lithology
~A (ASCII LOG DATA)
# ...
 1567.2500          2.3978       7774.1890       3242.1846          0.0633       3881.9028       1618.9264          0.9394          0.5549          2.0027          2.0000
 1567.5000          2.3819       7694.7383       3230.5559          0.0988       3835.7490       1610.3967          0.7905          0.5120          2.0061          2.0000
 1567.7500          2.3823       7665.6597       3217.7209          0.1016       3810.8157       1599.6239          0.7850          0.5048          2.0116          2.0000
 1568.0000          2.3846       7640.5244       3204.1284          0.0975       3785.6182       1587.5269          0.7562          0.5177          2.0183          2.0000
 1568.2500          2.3373       7465.0557       3193.8674          0.1446       3683.3362       1575.8713          0.6497          0.4359          2.0267          4.0000
 1568.5000          2.3380       7466.1123       3193.3059          0.1443       3671.2039       1570.2096          0.6770          0.4215          2.0337          2.0000
 1568.7500          2.4111       7715.6138       3200.0720          0.0598       3779.8291       1567.7046          0.8941          0.5717          2.0412          2.0000
 1569.0000          2.4452       7838.8628       3205.8381          0.0069       3829.1355       1565.9928          1.0000          0.6980          2.0472          2.0000
 1569.2500          2.4283       7791.4810       3208.6099          0.0067       3795.7754       1563.1344          1.0000          0.6877          2.0527          2.0000
 1569.5000          2.4146       7744.4980       3207.3167          0.0057       3762.8958       1558.3719          1.0000          0.6998          2.0581          2.0000
 1569.7500          2.4304       7781.6274       3201.8105          0.0014       3775.1689       1553.3239          0.9960          0.7582          2.0613          2.0000
 1570.0000          2.4284       7721.4106       3179.6006          0.0009       3751.3303       1544.7671          0.9182          0.7731          2.0583          2.0000
 1570.2500          2.4250       7582.9194       3126.9805          0.0007       3721.2656       1534.5355          0.8769          0.7826          2.0377          2.0000
 1570.5000          2.4315       7449.4663       3063.7173          0.0020       3699.3411       1521.4169          0.9203          0.7571          2.0137          2.0000
 1570.7500          2.4090       7202.3511       2989.5471          0.0273       3625.6636       1504.9836          0.9347          0.6391          1.9864          2.0000
 1571.0000          2.3517       6847.6982       2911.4966          0.1280       3495.0974       1486.1116          0.5918          0.4658          1.9591          5.0000
 1571.2500          2.3045       6516.4268       2827.5269          0.1799       3372.9548       1463.5891          0.5167          0.3329          1.9319          5.0000
 1571.5000          2.2723       6224.9023       2739.4124          0.2096       3267.2966       1437.8705          0.4880          0.2546          1.9051          5.0000
 1571.7500          2.2377       5980.0107       2672.2239          0.2384       3155.5938       1410.1106          0.4640          0.1913          1.8950          5.0000
 1572.0000          2.2179       5827.1899       2627.2842          0.2523       3075.2275       1386.5165          0.4493          0.1726          1.8949          5.0000
 1572.2500          2.2076       5699.7212       2581.8574          0.2613       3003.0654       1360.3253          0.4346          0.1712          1.8980          5.0000
 1572.5000          2.1844       5585.5557       2557.0176          0.2823       2936.3652       1344.2363          0.4135          0.1293          1.9022          5.0000
 1572.7500          2.1733       5524.7661       2542.1216          0.2894       2898.4182       1333.6550          0.4081          0.1134          1.9061          5.0000
 1573.0000          2.2051       5601.4053       2540.2073          0.2619       2935.8809       1331.4086          0.4266          0.1625          1.9079          5.0000
 1573.2500          2.2509       5720.6055       2541.4663          0.2249       2996.8586       1331.4016          0.4472          0.2422          1.9089          5.0000
 1573.5000          2.2604       5737.5049       2538.2544          0.2184       3001.0642       1327.6595          0.4414          0.2633          1.9118          5.0000
 1573.7500          2.2394       5660.1074       2527.5347          0.2364       2954.7844       1319.4620          0.4214          0.2271          1.9156          5.0000
 1574.0000          2.2221       5577.1631       2509.8992          0.2505       2904.8931       1307.2915          0.4096          0.1913          1.9199          5.0000
 1574.2500          2.2160       5506.8975       2485.0693          0.2553       2861.3037       1291.2067          0.4051          0.1702          1.9246          5.0000
 1574.5000          2.2230       5451.7080       2452.4187          0.2510       2822.2786       1269.5873          0.3997          0.1837          1.9317          5.0000
 1574.7500          2.2230       5370.1650       2415.6973          0.2516       2767.3918       1244.8724          0.3849          0.2065          1.9405          5.0000
 1575.0000          2.2077       5245.8057       2376.1025          0.2611       2689.1382       1218.0491          0.3614          0.2232          1.9508          5.0000
 1575.2500          2.1887       5136.3379       2346.7029          0.2751       2623.6455       1198.6930          0.3502          0.1982          1.9577          5.0000
 1575.5000          2.1726       5059.2837       2328.6824          0.2894       2580.1555       1187.5912          0.3489          0.1433          1.9608          5.0000
 1575.7500          2.1667       5031.9297       2322.3787          0.2958       2568.3918       1185.3860          0.3504          0.1036          1.9592          5.0000
 1576.0000          2.1671       5061.7051       2335.7419          0.2947       2593.0898       1196.5897          0.3437          0.1104          1.9520          5.0000
 1576.2500          2.1690       5165.7969       2381.6140          0.2934       2670.2991       1231.1003          0.3292          0.1333          1.9346          5.0000
 1576.5000          2.1741       5390.0864       2479.2087          0.2910       2827.4683       1300.5072          0.3153          0.1510          1.9067          5.0000
 1576.7500          2.1786       5689.3008       2611.3625          0.2879       3031.4170       1391.3992          0.3108          0.1478          1.8770          5.0000
 1577.0000          2.1887       6183.4717       2824.9900          0.2811       3344.3508       1527.8975          0.3139          0.1181          1.8491          5.0000
 1577.2500          2.2114       6727.2754       3041.6228          0.2653       3659.4529       1654.5404          0.3268          0.0784          1.8385          5.0000
 1577.5000          2.2603       7396.6812       3271.6631          0.2343       4039.8279       1786.8607          0.3670          0.0485          1.8310          5.0000
 1577.7500          2.3874       8216.8545       3440.8416          0.1692       4507.0054       1887.2416          0.5034          0.0535          1.8233          5.0000
 1578.0000          2.5536       9013.8145       3529.5044          0.0785       4964.2261       1943.7887          0.6929          0.1918          1.8158          3.0000
 1578.2500          2.6004       9173.8916       3527.7317          0.0432       5053.3521       1943.2115          0.7657          0.2850          1.8154          3.0000
 1578.5000          2.4489       8397.0830       3428.1018          0.1111       4608.4951       1881.3674          0.5988          0.2201          1.8222          5.0000
 1578.7500          2.2979       7465.3271       3246.8667          0.1928       4089.2969       1778.5214          0.4164          0.1779          1.8256          5.0000
