~VERSION INFORMATION
 VERS.                          2.0   : CWLS LOG ASCII STANDARD - VERSION 2.0
 WRAP.                          NO    : ONE LINE PER DEPTH STEP
#
~Well Information Section
#MNEM     .UNIT     DATA                DESCRIPTION
#-----    -----     --------            --------------
 STRT     .M        1062.0000           : START DEPTH
 STOP     .M        3300.0000           : END DEPTH
 STEP     .M        0.2500              : INCREMENT DEPTH
 NULL     .         -999.2500           : NULL VALUE
 COMP     .                             :
 WELL     .         DD-3X               : WELL NAME
 EKB      .M        32.5000             : KELLY BUSHING ELEVATION
 EGL      .M        0.0000              : GROUND LEVEL ELEVATION
 FLD      .                              :
 LOC      . X = 452044.8900 Y = 1118346.2000: WELL LOCATION
 PROV     .                              :
 SRVC     .                              :
 PROV     .                              :
 DATE     .                              :
 UWI      .         Unknown              : UNIQUE WELL ID
 API      .                              :
#
~Curve Information Section
#MNEM     .UNIT               Curve #DESCRIPTION
#-----    -----               ----   --------------
 DEPTH    .M                  : 1     Name = Domain Curve - Type = DEPTH
 RHOB     .g/cm3              : 2     Name = Density - Type = Density
 UNKNOWN  .(m/s)*(g/cc)       : 3     Name = P-Impedance_trans - Type = P-Impedance
 DT       .m/s                : 4     Name = P-wave - Type = P-wave
 UNKNOWN  .v/v                : 5     Name = PHIE - Type = Porosity
 UNKNOWN  .(m/s)*(g/cc)       : 6     Name = S-Impedance_trans - Type = S-Impedance
 SDT      .m/s                : 7     Name = S-wave - Type = S-wave
 UNKNOWN  .0.Sw               : 8     Name = SW - Type = Water Saturation
 UNKNOWN  .fraction           : 9     Name = VWCL - Type = Volumetric
 UNKNOWN  .unitless           : 10    Name = VpVs_Ratio - Type = VpVs_Ratio
 UNKNOWN  .md                 : 11    Name = lithology - Type = lithology
~A (ASCII LOG DATA)
# ...
 1426.2500          2.2737       5434.6992       2390.2134          0.0001       2122.4819        933.4803          1.0000          0.9716          2.5605          1.0000
 1426.5000          2.2594       5400.3604       2390.2134          0.0001       2109.0713        933.4803          1.0000          0.9835          2.5605          1.0000
 1426.7500          2.2247       5317.4092       2390.2134          0.0001       2076.6753        933.4803          1.0000          0.9562          2.5605          1.0000
 1427.0000          2.2140       5303.8574       2395.5881          0.0001       2074.6885        937.0712          1.0000          0.9212          2.5565          1.0000
 1427.2500          2.2244       5411.5674       2432.7900          0.0001       2145.2627        964.3860          1.0000          0.8767          2.5230          1.0000
 1427.5000          2.2614       5677.5679       2510.3430          0.0002       2314.8499       1023.4156          1.0000          0.8295          2.4537          1.0000
 1427.7500          2.3258       6111.5522       2627.3445          0.0006       2587.5559       1112.2563          1.0000          0.7916          2.3629          1.0000
 1428.0000          2.3704       6498.1567       2741.1287          0.0011       2841.8181       1198.6964          1.0000          0.7640          2.2876          2.0000
 1428.2500          2.4087       6898.5024       2863.8540          0.0008       3109.7073       1290.9247          1.0000          0.7785          2.2187          2.0000
 1428.5000          2.4412       7247.8608       2968.8240          0.0020       3340.1743       1368.1450          1.0000          0.7457          2.1703          2.0000
 1428.7500          2.4486       7464.9785       3048.6836          0.0039       3489.5215       1425.1166          1.0000          0.7098          2.1393          2.0000
 1429.0000          2.4401       7640.7134       3131.3843          0.0019       3609.5137       1479.2866          1.0000          0.7491          2.1168          2.0000
 1429.2500          2.4159       7690.3726       3183.3850          0.0008       3646.1736       1509.3202          1.0000          0.7761          2.1092          2.0000
 1429.5000          2.3936       7750.1699       3237.9109          0.0003       3680.6790       1537.7356          1.0000          0.8356          2.1056          2.0000
 1429.7500          2.4195       7956.6812       3288.4128          0.0001       3779.6570       1562.0934          0.9863          0.9255          2.1051          2.0000
 1430.0000          2.4862       8263.4023       3323.5713          0.0001       3921.8242       1577.3840          0.9190          0.9719          2.1070          2.0000
 1430.2500          2.5833       8612.6680       3333.9854          0.0001       4077.4333       1578.4083          0.9617          0.9918          2.1123          2.0000
 1430.5000          2.6234       8681.2461       3309.1401          0.0001       4088.3838       1558.4144          0.5458          0.9037          2.1234          2.0000
 1430.7500          2.5841       8374.7480       3240.6494          0.0001       3910.8391       1513.2687          0.4113          0.8207          2.1416          2.0000
 1431.0000          2.4951       7841.7759       3142.4011          0.0001       3619.3816       1450.2856          0.7867          0.8476          2.1669          1.0000
 1431.2500          2.3857       7175.3105       3006.8821          0.0001       3254.2332       1363.5813          0.9825          0.8844          2.2054          1.0000
 1431.5000          2.3185       6694.7354       2887.3174          0.0001       2982.7073       1286.3348          1.0000          0.8827          2.2450          1.0000
 1431.7500          2.3043       6357.3906       2758.8975          0.0001       2770.2932       1202.2192          1.0000          0.8985          2.2950          1.0000
 1432.0000          2.3095       6191.0815       2680.6919          0.0001       2656.7917       1150.3760          1.0000          0.9055          2.3305          1.0000
 1432.2500          2.3126       6094.9346       2635.5347          0.0001       2590.2021       1120.0403          1.0000          0.8952          2.3531          1.0000
 1432.5000          2.3173       6080.0640       2623.8035          0.0001       2577.6895       1112.3810          1.0000          0.8617          2.3587          1.0000
 1432.7500          2.3200       6127.9546       2641.3433          0.0004       2612.1328       1125.9091          1.0000          0.8167          2.3460          1.0000
 1433.0000          2.3307       6259.7319       2685.7139          0.0004       2702.9102       1159.6598          1.0000          0.8089          2.3160          1.0000
 1433.2500          2.3643       6487.6597       2743.8428          0.0001       2847.8066       1204.3851          1.0000          0.8774          2.2785          1.0000
 1433.5000          2.3886       6709.4106       2808.8843          0.0001       2997.1514       1254.7432          1.0000          0.8929          2.2388          1.0000
 1433.7500          2.3812       6857.0215       2879.6711          0.0014       3120.0989       1310.3351          1.0000          0.7841          2.1979          2.0000
 1434.0000          2.3741       6998.3403       2947.7864          0.0069       3239.4607       1364.4954          1.0000          0.6860          2.1605          2.0000
 1434.2500          2.3864       7181.3213       3009.1772          0.0073       3373.2434       1413.4658          1.0000          0.6798          2.1291          2.0000
 1434.5000          2.4029       7350.1353       3058.8401          0.0044       3491.7170       1453.1112          1.0000          0.7048          2.1051          2.0000
 1434.7500          2.4125       7469.0957       3095.9656          0.0023       3577.7607       1482.9888          1.0000          0.7361          2.0877          2.0000
 1435.0000          2.4175       7531.9370       3115.6326          0.0009       3623.5552       1498.9065          1.0000          0.7764          2.0786          2.0000
 1435.2500          2.3977       7491.1772       3124.2974          0.0014       3609.6189       1505.4401          1.0000          0.7618          2.0753          2.0000
 1435.5000          2.3750       7401.8252       3116.5674          0.0042       3558.4224       1498.2821          1.0000          0.7094          2.0801          2.0000
 1435.7500          2.3742       7354.0200       3097.5266          0.0056       3516.9790       1481.3623          1.0000          0.6932          2.0910          2.0000
 1436.0000          2.3988       7332.9844       3056.9653          0.0025       3472.7729       1447.7438          0.9579          0.7331          2.1116          2.0000
 1436.2500          2.4164       7267.8999       3007.7556          0.0009       3402.6628       1408.1783          0.8592          0.7741          2.1361          2.0000
 1436.5000          2.4296       7114.4395       2928.2407          0.0002       3268.3552       1345.2377          1.0000          0.8370          2.1770          2.0000
 1436.7500          2.4199       6868.0752       2838.0090          0.0001       3084.9468       1274.6970          0.9656          0.9043          2.2270          1.0000
 1437.0000          2.3783       6499.9341       2732.7400          0.0001       2836.8115       1192.5680          0.9250          0.9300          2.2920          1.0000
 1437.2500          2.3179       6089.9390       2627.0435          0.0001       2574.6064       1110.5149          1.0000          0.9381          2.3664          1.0000
 1437.5000          2.2691       5738.9468       2528.9451          0.0001       2346.8240       1034.0903          1.0000          0.9139          2.4462          1.0000
 1437.7500          2.2445       5507.6177       2453.7590          0.0001       2189.5664        975.4752          1.0000          0.8904          2.5160          1.0000
