~VERSION INFORMATION
 VERS.                          2.0   : CWLS LOG ASCII STANDARD - VERSION 2.0
 WRAP.                          NO    : ONE LINE PER DEPTH STEP
#
~Well Information Section
#MNEM     .UNIT     DATA                DESCRIPTION
#-----    -----     --------            --------------
 STRT     .M        1062.0000           : START DEPTH
 STOP     .M        3300.0000           : END DEPTH
 STEP     .M        0.2500              : INCREMENT DEPTH
 NULL     .         -999.2500           : NULL VALUE
 COMP     .                             :
 WELL     .         DD-3X               : WELL NAME
 EKB      .M        32.5000             : KELLY BUSHING ELEVATION
 EGL      .M        0.0000              : GROUND LEVEL ELEVATION
 FLD      .                              :
 LOC      . X = 452044.8900 Y = 1118346.2000: WELL LOCATION
 PROV     .                              :
 SRVC     .                              :
 PROV     .                              :
 DATE     .                              :
 UWI      .         Unknown              : UNIQUE WELL ID
 API      .                              :
#
~Curve Information Section
#MNEM     .UNIT               Curve #DESCRIPTION
#-----    -----               ----   --------------
 DEPTH    .M                  : 1     Name = Domain Curve - Type = DEPTH
 RHOB     .g/cm3              : 2     Name = Density - Type = Density
 UNKNOWN  .(m/s)*(g/cc)       : 3     Name = P-Impedance_trans - Type = P-Impedance
 DT       .m/s                : 4     Name = P-wave - Type = P-wave
 UNKNOWN  .v/v                : 5     Name = PHIE - Type = Porosity
 UNKNOWN  .(m/s)*(g/cc)       : 6     Name = S-Impedance_trans - Type = S-Impedance
 SDT      .m/s                : 7     Name = S-wave - Type = S-wave
 UNKNOWN  .0.Sw               : 8     Name = SW - Type = Water Saturation
 UNKNOWN  .fraction           : 9     Name = VWCL - Type = Volumetric
 UNKNOWN  .unitless           : 10    Name = VpVs_Ratio - Type = VpVs_Ratio
 UNKNOWN  .md                 : 11    Name = lithology - Type = lithology
~A (ASCII LOG DATA)
# ...
 1367.5000          2.1351       5582.3403       2614.5413          0.3102       2621.8926       1227.9871          0.8191          0.0835          2.1291          4.0000
 1367.7500          2.1368       5568.7832       2606.1367          0.3013       2607.3630       1220.2220          0.8873          0.1231          2.1358          4.0000
 1368.0000          2.1413       5550.1069       2591.8997          0.2977       2585.1438       1207.2633          0.9132          0.1449          2.1469          4.0000
 1368.2500          2.1431       5524.8589       2577.9314          0.2970       2560.0151       1194.5186          0.8824          0.1524          2.1581          4.0000
 1368.5000          2.1456       5495.3364       2561.2104          0.2946       2530.0142       1179.1637          0.8377          0.1664          2.1721          4.0000
 1368.7500          2.1455       5474.4160       2551.5339          0.2975       2510.8855       1170.2811          0.7997          0.1640          2.1803          4.0000
 1369.0000          2.1412       5451.8569       2546.1223          0.3001       2494.8508       1165.1433          0.7692          0.1673          2.1852          4.0000
 1369.2500          2.1408       5453.7603       2547.5010          0.2957       2496.3499       1166.0671          0.7856          0.1832          2.1847          4.0000
 1369.5000          2.1481       5485.9717       2553.8579          0.2904       2516.8462       1171.6533          0.7816          0.1845          2.1797          4.0000
 1369.7500          2.1517       5520.1621       2565.5378          0.2951       2543.5474       1182.1339          0.8277          0.1470          2.1703          4.0000
 1370.0000          2.1466       5531.4160       2576.8315          0.3010       2558.6052       1191.9371          0.8372          0.1149          2.1619          4.0000
 1370.2500          2.1448       5548.7144       2587.0952          0.3004       2574.4502       1200.3409          0.8174          0.1226          2.1553          4.0000
 1370.5000          2.1404       5555.6445       2595.5630          0.3035       2582.2651       1206.4189          0.8518          0.1330          2.1515          4.0000
 1370.7500          2.1391       5569.3257       2603.5901          0.2999       2591.3589       1211.4276          0.8779          0.1506          2.1492          4.0000
 1371.0000          2.1461       5599.2324       2609.0105          0.2869       2605.2659       1213.9464          0.9205          0.1872          2.1492          4.0000
 1371.2500          2.1634       5647.2417       2610.3872          0.2631       2623.7412       1212.8037          0.9934          0.2468          2.1524          4.0000
 1371.5000          2.1896       5706.0278       2605.9893          0.2378       2641.5659       1206.4340          0.9062          0.3141          2.1601          4.0000
 1371.7500          2.2055       5729.8975       2597.9810          0.2343       2642.1836       1197.9874          0.8154          0.3296          2.1686          4.0000
 1372.0000          2.1879       5651.6982       2583.1292          0.2576       2591.8000       1184.5867          0.8096          0.2702          2.1806          4.0000
 1372.2500          2.1740       5583.6113       2568.3669          0.2743       2548.2656       1172.1543          0.7958          0.2178          2.1912          4.0000
 1372.5000          2.1608       5509.0220       2549.4678          0.2894       2499.3696       1156.6550          0.8124          0.1864          2.2042          4.0000
 1372.7500          2.1485       5431.1309       2527.9197          0.2909       2448.4158       1139.6136          0.8429          0.1981          2.2183          4.0000
 1373.0000          2.1496       5396.7886       2510.6523          0.2901       2421.0168       1126.2875          0.8410          0.1954          2.2291          4.0000
 1373.2500          2.1499       5366.5454       2496.1875          0.2914       2399.4148       1116.0602          0.8162          0.1903          2.2366          4.0000
 1373.5000          2.1507       5348.6826       2486.9685          0.2869       2387.5806       1110.1498          0.8464          0.2211          2.2402          4.0000
 1373.7500          2.1506       5333.1987       2479.8457          0.2879       2379.1401       1106.2592          0.8211          0.2446          2.2416          4.0000
 1374.0000          2.1378       5289.1108       2474.0945          0.3000       2359.1494       1103.5426          0.7604          0.2357          2.2420          4.0000
 1374.2500          2.1223       5242.9673       2470.4736          0.3112       2340.9614       1103.0568          0.7655          0.2003          2.2397          4.0000
 1374.5000          2.1148       5221.8389       2469.1973          0.3169       2335.2502       1104.2463          0.7736          0.1584          2.2361          4.0000
 1374.7500          2.1132       5210.5034       2465.6411          0.3218       2331.6064       1103.3300          0.8394          0.1100          2.2347          4.0000
 1375.0000          2.1144       5199.9702       2459.3586          0.3250       2323.9802       1099.1411          0.8473          0.0884          2.2375          4.0000
 1375.2500          2.1123       5179.8564       2452.2161          0.3269       2310.3254       1093.7395          0.7799          0.0967          2.2420          4.0000
 1375.5000          2.1041       5144.4282       2444.9412          0.3288       2288.5320       1087.6472          0.8071          0.1166          2.2479          4.0000
 1375.7500          2.1031       5137.3486       2442.7263          0.3259       2282.9209       1085.4922          0.8270          0.1333          2.2503          4.0000
 1376.0000          2.1077       5150.5801       2443.7400          0.3220       2288.7563       1085.9213          0.8240          0.1476          2.2504          4.0000
 1376.2500          2.1111       5175.0288       2451.3584          0.3221       2305.6238       1092.1483          0.8396          0.1354          2.2445          4.0000
 1376.5000          2.1199       5228.8389       2466.5081          0.3174       2342.7217       1105.0863          0.8548          0.1261          2.2320          4.0000
 1376.7500          2.1255       5292.3740       2489.9258          0.3134       2392.7683       1125.7368          0.8661          0.1261          2.2119          4.0000
 1377.0000          2.1228       5340.8994       2515.9656          0.3142       2439.1558       1149.0276          0.8418          0.1160          2.1897          4.0000
 1377.2500          2.1234       5401.2905       2543.7498          0.3158       2493.0425       1174.1018          0.8304          0.0965          2.1666          4.0000
 1377.5000          2.1244       5458.1704       2569.2368          0.3190       2543.1392       1197.0922          0.8272          0.0760          2.1463          4.0000
 1377.7500          2.1220       5497.1685       2590.5054          0.3226       2581.6746       1216.5990          0.8353          0.0627          2.1293          4.0000
 1378.0000          2.1165       5508.2500       2602.5540          0.3292       2598.8335       1227.9066          0.8566          0.0457          2.1195          4.0000
 1378.2500          2.1094       5502.8247       2608.7708          0.3344       2603.1003       1234.0739          0.8825          0.0256          2.1140          4.0000
 1378.5000          2.1136       5507.5410       2605.7539          0.3322       2603.4463       1231.7559          0.9035          0.0212          2.1155          4.0000
 1378.7500          2.1166       5495.0464       2596.2119          0.3308       2590.3818       1223.8619          0.8965          0.0310          2.1213          4.0000
 1379.0000          2.1130       5445.3047       2577.0647          0.3294       2551.1992       1207.3892          0.8649          0.0524          2.1344          4.0000
