~VERSION INFORMATION
 VERS.                          2.0   : CWLS LOG ASCII STANDARD - VERSION 2.0
 WRAP.                          NO    : ONE LINE PER DEPTH STEP
#
~Well Information Section
#MNEM     .UNIT     DATA                DESCRIPTION
#-----    -----     --------            --------------
 STRT     .M        1062.0000           : START DEPTH
 STOP     .M        3300.0000           : END DEPTH
 STEP     .M        0.2500              : INCREMENT DEPTH
 NULL     .         -999.2500           : NULL VALUE
 COMP     .                             :
 WELL     .         DD-3X               : WELL NAME
 EKB      .M        32.5000             : KELLY BUSHING ELEVATION
 EGL      .M        0.0000              : GROUND LEVEL ELEVATION
 FLD      .                              :
 LOC      . X = 452044.8900 Y = 1118346.2000: WELL LOCATION
 PROV     .                              :
 SRVC     .                              :
 PROV     .                              :
 DATE     .                              :
 UWI      .         Unknown              : UNIQUE WELL ID
 API      .                              :
#
~Curve Information Section
#MNEM     .UNIT               Curve #DESCRIPTION
#-----    -----               ----   --------------
 DEPTH    .M                  : 1     Name = Domain Curve - Type = DEPTH
 RHOB     .g/cm3              : 2     Name = Density - Type = Density
 UNKNOWN  .(m/s)*(g/cc)       : 3     Name = P-Impedance_trans - Type = P-Impedance
 DT       .m/s                : 4     Name = P-wave - Type = P-wave
 UNKNOWN  .v/v                : 5     Name = PHIE - Type = Porosity
 UNKNOWN  .(m/s)*(g/cc)       : 6     Name = S-Impedance_trans - Type = S-Impedance
 SDT      .m/s                : 7     Name = S-wave - Type = S-wave
 UNKNOWN  .0.Sw               : 8     Name = SW - Type = Water Saturation
 UNKNOWN  .fraction           : 9     Name = VWCL - Type = Volumetric
 UNKNOWN  .unitless           : 10    Name = VpVs_Ratio - Type = VpVs_Ratio
 UNKNOWN  .md                 : 11    Name = lithology - Type = lithology
~A (ASCII LOG DATA)
# ...
 1708.2500          2.2171       5870.9028       2648.0149          0.2592       3154.3879       1422.7566          0.3393          0.1526          1.8612          5.0000
 1708.5000          2.2130       5811.4946       2626.1233          0.2638       3120.7158       1410.2024          0.3481          0.1266          1.8622          5.0000
 1708.7500          2.2098       5767.0313       2609.7974          0.2630       3095.8789       1401.0010          0.3185          0.1201          1.8628          5.0000
 1709.0000          2.2141       5750.2412       2597.1223          0.2537       3085.7725       1393.7035          0.3273          0.1464          1.8635          5.0000
 1709.2500          2.2161       5720.8062       2581.4705          0.2531       3066.9722       1383.9475          0.3485          0.1722          1.8653          5.0000
 1709.5000          2.2010       5651.1113       2567.5139          0.2653       3026.7563       1375.1683          0.2950          0.1578          1.8671          5.0000
 1709.7500          2.1921       5595.0176       2552.4016          0.2736       2992.3240       1365.0741          0.2958          0.1323          1.8698          5.0000
 1710.0000          2.1962       5578.0703       2539.8926          0.2775       2980.1797       1356.9813          0.2677          0.1135          1.8717          5.0000
 1710.2500          2.1934       5553.9722       2532.1648          0.2826       2967.2109       1352.8097          0.2675          0.0986          1.8718          5.0000
 1710.5000          2.1916       5540.3223       2528.0264          0.2832       2960.9275       1351.0590          0.2821          0.0861          1.8711          5.0000
 1710.7500          2.2001       5561.5605       2527.8247          0.2823       2974.1064       1351.7817          0.2245          0.0814          1.8700          5.0000
 1711.0000          2.2032       5572.4434       2529.2915          0.2805       2982.8135       1353.8774          0.2279          0.0880          1.8682          5.0000
 1711.2500          2.1921       5546.0498       2530.0039          0.2812       2971.1001       1355.3608          0.2642          0.0959          1.8667          5.0000
 1711.5000          2.1808       5514.1685       2528.4688          0.2872       2955.5759       1355.2511          0.2690          0.0917          1.8657          5.0000
 1711.7500          2.1722       5482.5366       2523.9678          0.2932       2938.5530       1352.8066          0.2834          0.0824          1.8657          5.0000
 1712.0000          2.1684       5458.0210       2517.0525          0.2944       2923.1611       1348.0621          0.2821          0.0743          1.8672          5.0000
 1712.2500          2.1741       5455.1377       2509.2031          0.2899       2918.4138       1342.3853          0.2682          0.0793          1.8692          5.0000
 1712.5000          2.1757       5440.4551       2500.5317          0.2893       2906.5623       1335.9083          0.2700          0.0823          1.8718          5.0000
 1712.7500          2.1739       5412.9482       2489.9978          0.2880       2886.7583       1327.9313          0.2717          0.0920          1.8751          5.0000
 1713.0000          2.1779       5407.9443       2483.0857          0.2851       2880.5342       1322.6127          0.2889          0.1070          1.8774          5.0000
 1713.2500          2.1797       5402.3257       2478.4629          0.2873       2874.2437       1318.6368          0.2933          0.1028          1.8796          5.0000
 1713.5000          2.1795       5400.0415       2477.6265          0.2881       2872.1191       1317.7748          0.2734          0.0998          1.8802          5.0000
 1713.7500          2.1782       5398.2632       2478.2930          0.2876       2871.6399       1318.3435          0.2853          0.1054          1.8799          5.0000
 1714.0000          2.1746       5392.4541       2479.7251          0.2913       2870.0591       1319.7993          0.3018          0.0906          1.8789          5.0000
 1714.2500          2.1749       5393.5298       2479.9324          0.2917       2871.5085       1320.3129          0.2742          0.0779          1.8783          5.0000
 1714.5000          2.1764       5393.7939       2478.3545          0.2904       2870.9890       1319.1694          0.2643          0.0759          1.8787          5.0000
 1714.7500          2.1729       5374.6831       2473.4734          0.2935       2858.1392       1315.3389          0.2642          0.0673          1.8805          5.0000
 1715.0000          2.1703       5351.0332       2465.5227          0.2944       2842.0864       1309.5094          0.2783          0.0728          1.8828          5.0000
 1715.2500          2.1719       5339.4458       2458.3689          0.2915       2832.2148       1303.9988          0.2907          0.0932          1.8853          5.0000
 1715.5000          2.1790       5347.8652       2454.2632          0.2873       2834.3323       1300.7430          0.2901          0.1093          1.8868          5.0000
 1715.7500          2.1857       5369.9346       2456.8389          0.2834       2847.4106       1302.7399          0.2855          0.1239          1.8859          5.0000
 1716.0000          2.1820       5378.7524       2465.1077          0.2883       2857.1226       1309.4342          0.2752          0.1096          1.8826          5.0000
 1716.2500          2.1710       5383.0410       2479.5835          0.2967       2867.3992       1320.8082          0.2622          0.0751          1.8773          5.0000
 1716.5000          2.1673       5404.3076       2493.5979          0.3007       2885.8591       1331.5623          0.2305          0.0558          1.8727          5.0000
 1716.7500          2.1675       5444.0864       2511.6738          0.2978       2915.4856       1345.0833          0.2262          0.0528          1.8673          5.0000
 1717.0000          2.1702       5479.7695       2525.0181          0.2927       2939.2861       1354.3904          0.2780          0.0616          1.8643          5.0000
 1717.2500          2.1794       5523.5806       2534.4133          0.2876       2964.7773       1360.3442          0.2470          0.0781          1.8631          5.0000
 1717.5000          2.1906       5561.5918       2538.8374          0.2789       2983.8733       1362.1230          0.3027          0.1024          1.8639          5.0000
 1717.7500          2.1981       5585.5171       2541.0234          0.2757       2994.6987       1362.3807          0.3148          0.1111          1.8651          5.0000
 1718.0000          2.1988       5596.8833       2545.4697          0.2780       3000.4031       1364.5870          0.3048          0.0968          1.8654          5.0000
 1718.2500          2.1949       5603.2690       2552.8494          0.2820       3005.2837       1369.2074          0.2954          0.0759          1.8645          5.0000
 1718.5000          2.1896       5615.2744       2564.5127          0.2876       3015.1526       1377.0303          0.2833          0.0628          1.8624          5.0000
 1718.7500          2.1835       5635.8350       2581.0574          0.2904       3031.6726       1388.4227          0.2672          0.0631          1.8590          5.0000
 1719.0000          2.1948       5730.8745       2611.0696          0.2813       3092.4988       1408.9833          0.2584          0.0767          1.8532          5.0000
 1719.2500          2.2139       5855.9224       2644.9856          0.2714       3170.4226       1432.0006          0.2601          0.0791          1.8471          5.0000
 1719.5000          2.2275       5981.2930       2685.2363          0.2657       3250.4417       1459.2490          0.2650          0.0692          1.8402          5.0000
 1719.7500          2.2378       6103.5503       2727.4482          0.2589       3328.4641       1487.3615          0.2701          0.0630          1.8338          5.0000
