~VERSION INFORMATION
 VERS.                          2.0   : CWLS LOG ASCII STANDARD - VERSION 2.0
 WRAP.                          NO    : ONE LINE PER DEPTH STEP
#
~Well Information Section
#MNEM     .UNIT     DATA                DESCRIPTION
#-----    -----     --------            --------------
 STRT     .M        1062.0000           : START DEPTH
 STOP     .M        3300.0000           : END DEPTH
 STEP     .M        0.2500              : INCREMENT DEPTH
 NULL     .         -999.2500           : NULL VALUE
 COMP     .                             :
 WELL     .         DD-3X               : WELL NAME
 EKB      .M        32.5000             : KELLY BUSHING ELEVATION
 EGL      .M        0.0000              : GROUND LEVEL ELEVATION
 FLD      .                              :
 LOC      . X = 452044.8900 Y = 1118346.2000: WELL LOCATION
 PROV     .                              :
 SRVC     .                              :
 PROV     .                              :
 DATE     .                              :
 UWI      .         Unknown              : UNIQUE WELL ID
 API      .                              :
#
~Curve Information Section
#MNEM     .UNIT               Curve #DESCRIPTION
#-----    -----               ----   --------------
 DEPTH    .M                  : 1     Name = Domain Curve - Type = DEPTH
 RHOB     .g/cm3              : 2     Name = Density - Type = Density
 UNKNOWN  .(m/s)*(g/cc)       : 3     Name = P-Impedance_trans - Type = P-Impedance
 DT       .m/s                : 4     Name = P-wave - Type = P-wave
 UNKNOWN  .v/v                : 5     Name = PHIE - Type = Porosity
 UNKNOWN  .(m/s)*(g/cc)       : 6     Name = S-Impedance_trans - Type = S-Impedance
 SDT      .m/s                : 7     Name = S-wave - Type = S-wave
 UNKNOWN  .0.Sw               : 8     Name = SW - Type = Water Saturation
 UNKNOWN  .fraction           : 9     Name = VWCL - Type = Volumetric
 UNKNOWN  .unitless           : 10    Name = VpVs_Ratio - Type = VpVs_Ratio
 UNKNOWN  .md                 : 11    Name = lithology - Type = lithology
~A (ASCII LOG DATA)
# ...
 1908.0000          2.6484      13449.3633       5078.2622          0.0240       7078.0122       2672.5635          1.0000          0.1993          1.9002          3.0000
 1908.2500          2.6398      13419.3926       5083.5903          0.0145       7097.7065       2688.7717          0.9603          0.2217          1.8907          3.0000
 1908.5000          2.6623      13439.6338       5048.1689          0.0036       7151.3174       2686.1470          0.4258          0.2369          1.8793          3.0000
 1908.7500          2.6850      13341.4980       4968.8677          0.0052       7144.4873       2660.8635          0.3118          0.2284          1.8674          3.0000
 1909.0000          2.6803      12967.8447       4837.9844          0.0055       6999.2661       2611.2722          0.8054          0.2544          1.8527          3.0000
 1909.2500          2.6327      12373.8086       4699.5698          0.0117       6705.7646       2546.8618          0.5562          0.3044          1.8452          3.0000
 1909.5000          2.5080      11357.5938       4527.5640          0.0732       6161.9912       2456.4063          0.9662          0.2665          1.8432          3.0000
 1909.7500          2.4167      10588.1133       4380.8970          0.1299       5737.0308       2373.7185          0.9737          0.1905          1.8456          3.0000
 1910.0000          2.4434      10368.2236       4243.7905          0.1207       5596.7734       2290.8293          0.3865          0.1948          1.8525          3.0000
 1910.2500          2.5382      10436.2783       4112.1689          0.0701       5600.1367       2206.6746          0.4630          0.2925          1.8636          3.0000
 1910.5000          2.5768      10316.8057       4003.7808          0.0463       5494.7793       2132.4329          1.0000          0.3496          1.8776          3.0000
 1910.7500          2.5609       9840.8535       3842.7332          0.0478       5212.2876       2035.3286          1.0000          0.3692          1.8881          3.0000
 1911.0000          2.5468       9430.4297       3702.6345          0.0484       4963.8037       1948.8975          0.9785          0.4115          1.9000          2.0000
 1911.2500          2.4796       8791.8242       3544.9985          0.0904       4595.0200       1852.7279          0.7960          0.3662          1.9134          4.0000
 1911.5000          2.3341       7874.6309       3373.0278          0.1831       4082.2888       1748.5524          1.0000          0.2284          1.9291          4.0000
 1911.7500          2.2768       7363.6475       3233.9619          0.2138       3787.7974       1663.4945          0.9900          0.2088          1.9442          4.0000
 1912.0000          2.2451       6983.5254       3110.3599          0.2394       3563.7810       1587.2372          0.9376          0.1605          1.9597          4.0000
 1912.2500          2.2214       6750.4131       3038.8289          0.2620       3400.8035       1530.9261          0.9967          0.1011          1.9851          4.0000
 1912.5000          2.2195       6635.7847       2989.8301          0.2589       3308.8582       1490.8468          1.0000          0.1213          2.0055          4.0000
 1912.7500          2.2381       6610.5938       2953.6936          0.2401       3281.8274       1466.3710          1.0000          0.1780          2.0143          4.0000
 1913.0000          2.2907       6706.1289       2927.6416          0.2044       3316.7681       1447.9856          1.0000          0.2480          2.0219          4.0000
 1913.2500          2.3095       6719.4800       2909.4329          0.1946       3316.6946       1436.0759          1.0000          0.2588          2.0260          4.0000
 1913.5000          2.2617       6530.7681       2887.4827          0.2227       3218.4407       1422.9817          1.0000          0.2115          2.0292          4.0000
 1913.7500          2.2118       6332.0874       2862.8511          0.2492       3114.7986       1408.2482          1.0000          0.1851          2.0329          4.0000
 1914.0000          2.1783       6184.8501       2839.2612          0.2709       3035.8560       1393.6576          1.0000          0.1628          2.0373          4.0000
 1914.2500          2.1650       6084.6006       2810.3806          0.2835       2977.2261       1375.1342          1.0000          0.1429          2.0437          4.0000
 1914.5000          2.1724       6058.1084       2788.6919          0.2821       2956.0298       1360.7333          1.0000          0.1347          2.0494          4.0000
 1914.7500          2.1747       6018.2041       2767.3501          0.2845       2927.0051       1345.9236          1.0000          0.1110          2.0561          4.0000
 1915.0000          2.1724       5971.9561       2748.9600          0.2879       2893.6575       1331.9847          1.0000          0.0895          2.0638          4.0000
 1915.2500          2.1786       5954.9600       2733.3960          0.2834       2873.9106       1319.1606          1.0000          0.1034          2.0721          4.0000
 1915.5000          2.1794       5927.9248       2719.9397          0.2837       2850.5054       1307.9106          1.0000          0.1203          2.0796          4.0000
 1915.7500          2.1709       5887.8394       2712.1401          0.2885       2825.5107       1301.5264          1.0000          0.1317          2.0838          4.0000
 1916.0000          2.1672       5879.1763       2712.7600          0.2874       2822.3296       1302.2747          1.0000          0.1435          2.0831          4.0000
 1916.2500          2.1714       5907.9849       2720.8191          0.2803       2842.9727       1309.2803          1.0000          0.1582          2.0781          4.0000
 1916.5000          2.1712       5948.1748       2739.5530          0.2873       2876.4573       1324.8127          1.0000          0.1183          2.0679          4.0000
 1916.7500          2.1666       5984.7373       2762.2825          0.2983       2910.4094       1343.3146          1.0000          0.0723          2.0564          4.0000
 1917.0000          2.1644       6054.6362       2797.3252          0.3003       2968.1729       1371.3372          1.0000          0.0576          2.0399          4.0000
 1917.2500          2.1669       6144.1401       2835.3730          0.2964       3035.3486       1400.7341          1.0000          0.0572          2.0243          4.0000
 1917.5000          2.1817       6272.9873       2875.2158          0.2840       3120.9685       1430.4835          1.0000          0.0732          2.0100          4.0000
 1917.7500          2.2054       6467.1113       2932.4248          0.2683       3243.7437       1470.8252          1.0000          0.0901          1.9938          4.0000
 1918.0000          2.2140       6616.9067       2988.6746          0.2620       3338.9956       1508.1294          1.0000          0.1019          1.9818          4.0000
 1918.2500          2.2210       6815.6694       3068.6848          0.2545       3462.8267       1559.0967          1.0000          0.1277          1.9683          4.0000
 1918.5000          2.2345       7066.8779       3162.5391          0.2420       3614.1877       1617.3994          1.0000          0.1593          1.9554          4.0000
 1918.7500          2.2517       7366.9141       3271.4597          0.2326       3792.6670       1684.2086          1.0000          0.1553          1.9425          4.0000
 1919.0000          2.3075       7821.5156       3389.1001          0.2006       4051.0737       1755.3055          1.0000          0.1716          1.9308          3.0000
 1919.2500          2.4283       8548.4268       3519.5627          0.1218       4453.1772       1833.4069          1.0000          0.2876          1.9197          3.0000
 1919.5000          2.5260       9190.8652       3638.1709          0.0566       4810.8726       1904.3374          1.0000          0.4072          1.9105          2.0000
