~VERSION INFORMATION
 VERS.                          2.0   : CWLS LOG ASCII STANDARD - VERSION 2.0
 WRAP.                          NO    : ONE LINE PER DEPTH STEP
#
~Well Information Section
#MNEM     .UNIT     DATA                DESCRIPTION
#-----    -----     --------            --------------
 STRT     .M        1062.0000           : START DEPTH
 STOP     .M        3300.0000           : END DEPTH
 STEP     .M        0.2500              : INCREMENT DEPTH
 NULL     .         -999.2500           : NULL VALUE
 COMP     .                             :
 WELL     .         DD-3X               : WELL NAME
 EKB      .M        32.5000             : KELLY BUSHING ELEVATION
 EGL      .M        0.0000              : GROUND LEVEL ELEVATION
 FLD      .                              :
 LOC      . X = 452044.8900 Y = 1118346.2000: WELL LOCATION
 PROV     .                              :
 SRVC     .                              :
 PROV     .                              :
 DATE     .                              :
 UWI      .         Unknown              : UNIQUE WELL ID
 API      .                              :
#
~Curve Information Section
#MNEM     .UNIT               Curve #DESCRIPTION
#-----    -----               ----   --------------
 DEPTH    .M                  : 1     Name = Domain Curve - Type = DEPTH
 RHOB     .g/cm3              : 2     Name = Density - Type = Density
 UNKNOWN  .(m/s)*(g/cc)       : 3     Name = P-Impedance_trans - Type = P-Impedance
 DT       .m/s                : 4     Name = P-wave - Type = P-wave
 UNKNOWN  .v/v                : 5     Name = PHIE - Type = Porosity
 UNKNOWN  .(m/s)*(g/cc)       : 6     Name = S-Impedance_trans - Type = S-Impedance
 SDT      .m/s                : 7     Name = S-wave - Type = S-wave
 UNKNOWN  .0.Sw               : 8     Name = SW - Type = Water Saturation
 UNKNOWN  .fraction           : 9     Name = VWCL - Type = Volumetric
 UNKNOWN  .unitless           : 10    Name = VpVs_Ratio - Type = VpVs_Ratio
 UNKNOWN  .md                 : 11    Name = lithology - Type = lithology
~A (ASCII LOG DATA)
# ...
 1496.7500          2.1682       5778.1030       2664.9795          0.2905       2738.5168       1263.0593          0.8663          0.1316          2.1099          4.0000
 1497.0000          2.1531       5738.1953       2665.0430          0.3009       2717.0969       1261.9258          0.8471          0.1141          2.1119          4.0000
 1497.2500          2.1475       5728.6553       2667.5640          0.3029       2711.0115       1262.3900          0.8525          0.1029          2.1131          4.0000
 1497.5000          2.1546       5760.5723       2673.6064          0.2954       2725.8198       1265.1121          0.8646          0.1137          2.1133          4.0000
 1497.7500          2.1668       5809.0186       2680.8833          0.2862       2749.3369       1268.8287          0.8775          0.1329          2.1129          4.0000
 1498.0000          2.1828       5872.1426       2690.1982          0.2731       2781.4868       1274.2775          0.9248          0.1615          2.1112          4.0000
 1498.2500          2.2134       5976.1748       2700.0173          0.2511       2834.7190       1280.7123          0.9902          0.2010          2.1082          4.0000
 1498.5000          2.2419       6080.0400       2712.0481          0.2416       2890.8611       1289.4907          0.9948          0.2070          2.1032          4.0000
 1498.7500          2.2174       6030.7891       2719.7761          0.2661       2874.9412       1296.5560          0.9366          0.1475          2.0977          4.0000
 1499.0000          2.1812       5942.2041       2724.2268          0.2892       2839.7827       1301.9131          0.8516          0.0960          2.0925          4.0000
 1499.2500          2.1638       5896.5781       2725.1318          0.2985       2825.2871       1305.7209          0.7979          0.0779          2.0871          4.0000
 1499.5000          2.1614       5887.2202       2723.7803          0.3012       2825.1724       1307.0934          0.8127          0.0673          2.0838          4.0000
 1499.7500          2.1688       5901.3257       2721.0205          0.2986       2836.2246       1307.7437          0.8523          0.0645          2.0807          4.0000
 1500.0000          2.1735       5914.4883       2721.1689          0.2978       2846.4092       1309.5914          0.8916          0.0642          2.0779          4.0000
 1500.2500          2.1642       5910.2646       2730.9741          0.3052       2851.0266       1317.3864          0.8828          0.0489          2.0730          4.0000
 1500.5000          2.1476       5924.9995       2758.9797          0.3160       2870.1196       1336.4778          0.8575          0.0277          2.0644          4.0000
 1500.7500          2.1413       6006.2871       2805.0063          0.3191       2926.1211       1366.5322          0.8460          0.0261          2.0527          4.0000
 1501.0000          2.1484       6169.1191       2871.4160          0.3112       3027.9609       1409.3539          0.8585          0.0447          2.0375          4.0000
 1501.2500          2.1914       6469.3213       2951.8142          0.2778       3201.9575       1460.9395          0.9517          0.0723          2.0206          4.0000
 1501.5000          2.3055       7020.7617       3044.5276          0.2157       3506.5042       1520.4833          1.0000          0.1172          2.0024          3.0000
 1501.7500          2.4133       7518.6963       3115.2542          0.1721       3780.4714       1566.3436          1.0000          0.1464          1.9889          3.0000
 1502.0000          2.4548       7794.3955       3175.1189          0.1581       3941.6375       1605.6622          0.9932          0.1553          1.9775          3.0000
 1502.2500          2.4250       7722.7075       3184.6431          0.1743       3910.8684       1612.7393          0.9055          0.1423          1.9747          4.0000
 1502.5000          2.3498       7434.1050       3163.6482          0.2104       3759.9216       1600.0565          0.8468          0.1074          1.9772          4.0000
 1502.7500          2.2815       7074.3335       3100.5107          0.2466       3559.3701       1559.9597          0.8997          0.0804          1.9876          4.0000
 1503.0000          2.2267       6766.2646       3038.4954          0.2741       3387.3167       1521.1028          0.8182          0.0600          1.9976          4.0000
 1503.2500          2.1914       6525.9561       2977.9878          0.2862       3252.1189       1484.0363          0.8029          0.0646          2.0067          4.0000
 1503.5000          2.1838       6469.9868       2962.7666          0.2864       3221.5989       1475.2509          0.8814          0.0948          2.0083          4.0000
 1503.7500          2.1724       6510.9277       2997.1914          0.2939       3253.6526       1497.7693          0.9372          0.1033          2.0011          4.0000
 1504.0000          2.1627       6715.1484       3104.9224          0.3004       3386.1157       1565.6576          0.9896          0.0784          1.9833          4.0000
 1504.2500          2.1992       7230.4009       3286.7012          0.2662       3690.3000       1677.3894          0.9990          0.0675          1.9596          4.0000
 1504.5000          2.3430       8258.2119       3521.7913          0.1785       4260.9741       1816.9348          1.0000          0.1106          1.9385          3.0000
 1504.7500          2.5771       9724.8047       3772.2773          0.0730       5060.6577       1962.9664          1.0000          0.1989          1.9218          3.0000
 1505.0000          2.6508      10519.6191       3968.3386          0.0402       5514.8838       2080.3743          0.7890          0.2145          1.9076          3.0000
 1505.2500          2.6593      10789.2227       4057.1399          0.0381       5704.7852       2145.2004          0.7131          0.2032          1.8913          3.0000
 1505.5000          2.6663      10806.6553       4053.0908          0.0384       5762.1768       2161.1362          0.7702          0.2059          1.8754          3.0000
 1505.7500          2.6134      10379.4961       3970.8254          0.0732       5530.3135       2115.6592          0.7525          0.2014          1.8769          3.0000
 1506.0000          2.4724       9389.7314       3796.6165          0.1395       4982.9561       2014.7394          0.5862          0.1709          1.8845          4.0000
 1506.2500          2.2730       8036.3096       3533.1157          0.2358       4236.6201       1862.4576          0.7343          0.1086          1.8972          4.0000
 1506.5000          2.1775       7185.7598       3299.4390          0.2784       3751.5500       1722.5281          0.9823          0.1105          1.9157          4.0000
 1506.7500          2.1649       6625.8999       3060.6133          0.2849       3388.2307       1565.0920          0.9868          0.1255          1.9561          4.0000
 1507.0000          2.1692       6303.7690       2906.0525          0.2834       3135.3489       1445.4127          0.9359          0.1396          2.0113          4.0000
 1507.2500          2.1686       6008.4902       2770.5754          0.2877       2903.1621       1338.6674          0.9901          0.1336          2.0700          4.0000
 1507.5000          2.1581       5747.5200       2663.2092          0.3001       2714.3750       1257.7349          0.9785          0.1081          2.1178          4.0000
 1507.7500          2.1471       5548.0049       2583.9343          0.3075       2563.9463       1194.1174          0.8542          0.1105          2.1641          4.0000
 1508.0000          2.1330       5396.8862       2530.1824          0.3166       2450.5706       1148.8661          0.7565          0.1131          2.2025          4.0000
 1508.2500          2.1221       5271.9160       2484.3384          0.3259       2353.0840       1108.8674          0.8295          0.1022          2.2405          4.0000
